14:23:19.6 $GPGGA,062318.20,3015.6993093,N,12007.0310139,E,4,24,0.5,34.9968,M,7.094,M,0.2,0004*78
14:23:19.6 $GPGGA,062318.20,3015.6993093,N,12007.0310139,E,4,24,0.5,34.9968,M,7.094,M,0.3,0004*79
14:23:19.6 $GPGGA,062318.40,3015.6993083,N,12007.0310130,E,4,24,0.5,34.9988,M,7.094,M,0.4,0004*7E
14:23:19.6 $GPGGA,062318.40,3015.6993083,N,12007.0310130,E,4,24,0.5,34.9988,M,7.094,M,0.5,0004*7F
14:23:19.6 $GPGGA,062318.60,3015.6993082,N,12007.0310124,E,4,24,0.5,35.0042,M,7.094,M,0.6,0004*7D
14:23:19.6 $GPGGA,062318.60,3015.6993082,N,12007.0310124,E,4,24,0.5,35.0042,M,7.094,M,0.7,0004*7C
14:23:19.6 $GPGGA,062318.80,3015.6993083,N,12007.0310121,E,4,24,0.5,35.0035,M,7.094,M,0.8,0004*79
14:23:19.6 $GPGGA,062318.80,3015.6993083,N,12007.0310121,E,4,24,0.5,35.0035,M,7.094,M,0.9,0004*78
14:23:19.6 $GPGGA,062319.00,3015.6993079,N,12007.0310117,E,4,24,0.5,34.9994,M,7.094,M,1.0,0004*73
14:23:19.7 $GPGGA,062319.00,3015.6993079,N,12007.0310117,E,4,24,0.5,34.9994,M,7.094,M,1.1,0004*72
14:23:19.7 $GPGGA,062319.20,3015.6993087,N,12007.0310131,E,4,24,0.5,34.9972,M,7.094,M,0.2,0004*7F
14:23:19.7 $GPGGA,062319.20,3015.6993087,N,12007.0310131,E,4,24,0.5,34.9972,M,7.094,M,0.3,0004*7E
14:23:19.7 $GPGGA,062319.40,3015.6993077,N,12007.0310116,E,4,24,0.5,35.0005,M,7.094,M,0.4,0004*74
14:23:19.7 $GPGGA,062319.40,3015.6993077,N,12007.0310116,E,4,24,0.5,35.0005,M,7.094,M,0.5,0004*75
14:23:19.7 $GPGGA,062319.60,3015.6993088,N,12007.0310126,E,4,24,0.5,34.9979,M,7.094,M,0.6,0004*7D
14:23:19.7 $GPGGA,062319.60,3015.6993088,N,12007.0310126,E,4,24,0.5,34.9979,M,7.094,M,0.7,0004*7C
14:23:19.7 $GPGGA,062319.80,3015.6993087,N,12007.0310121,E,4,24,0.5,34.9937,M,7.094,M,0.8,0004*7F
14:23:19.7 $GPGGA,062319.80,3015.6993087,N,12007.0310121,E,4,24,0.5,34.9937,M,7.094,M,0.9,0004*7E
14:23:20.8 $GPGGA,062320.00,3015.6993074,N,12007.0310111,E,4,24,0.5,34.9987,M,7.094,M,1.0,0004*70
14:23:20.8 $GPGGA,062320.00,3015.6993074,N,12007.0310111,E,4,24,0.5,34.9987,M,7.094,M,1.1,0004*71
14:23:20.8 $GPGGA,062320.20,3015.6993097,N,12007.0310128,E,4,24,0.5,34.9899,M,7.094,M,0.2,0004*78
14:23:20.8 $GPGGA,062320.20,3015.6993097,N,12007.0310128,E,4,24,0.5,34.9899,M,7.094,M,0.3,0004*79
14:23:20.8 $GPGGA,062320.40,3015.6993078,N,12007.0310111,E,4,24,0.5,34.9994,M,7.094,M,0.4,0004*7F
14:23:20.8 $GPGGA,062320.40,3015.6993078,N,12007.0310111,E,4,24,0.5,34.9994,M,7.094,M,0.5,0004*7E
14:23:20.8 $GPGGA,062320.60,3015.6993080,N,12007.0310112,E,4,24,0.5,35.0009,M,7.094,M,0.6,0004*7E
14:23:20.8 $GPGGA,062320.60,3015.6993080,N,12007.0310112,E,4,24,0.5,35.0009,M,7.094,M,0.7,0004*7F
14:23:20.8 $GPGGA,062320.80,3015.6993080,N,12007.0310117,E,4,24,0.5,34.9972,M,7.094,M,0.8,0004*76
14:23:21.8 $GPGGA,062320.80,3015.6993080,N,12007.0310117,E,4,24,0.5,34.9972,M,7.094,M,0.9,0004*77
14:23:21.8 $GPGGA,062321.00,3015.6993069,N,12007.0310108,E,4,24,0.5,35.0008,M,7.094,M,1.0,0004*73
14:23:21.8 $GPGGA,062321.00,3015.6993069,N,12007.0310108,E,4,24,0.5,35.0008,M,7.094,M,1.1,0004*72
14:23:21.8 $GPGGA,062321.20,3015.6993086,N,12007.0310126,E,4,24,0.5,35.0062,M,7.094,M,0.2,0004*73
14:23:21.8 $GPGGA,062321.20,3015.6993086,N,12007.0310126,E,4,24,0.5,35.0062,M,7.094,M,0.3,0004*72
14:23:21.8 $GPGGA,062321.40,3015.6993079,N,12007.0310123,E,4,24,0.5,35.0071,M,7.094,M,0.4,0004*74
14:23:21.8 $GPGGA,062321.40,3015.6993079,N,12007.0310123,E,4,24,0.5,35.0071,M,7.094,M,0.5,0004*75
14:23:21.8 $GPGGA,062321.60,3015.6993084,N,12007.0310117,E,4,24,0.5,35.0095,M,7.094,M,0.6,0004*7B
14:23:21.8 $GPGGA,062321.60,3015.6993084,N,12007.0310117,E,4,24,0.5,35.0095,M,7.094,M,0.7,0004*7A
14:23:22.9 $GPGGA,062321.80,3015.6993068,N,12007.0310109,E,4,24,0.5,35.0122,M,7.094,M,0.8,0004*7B
14:23:22.9 $GPGGA,062321.80,3015.6993068,N,12007.0310109,E,4,24,0.5,35.0122,M,7.094,M,0.9,0004*7A
14:23:22.9 $GPGGA,062322.00,3015.6993069,N,12007.0310113,E,4,24,0.5,35.0155,M,7.094,M,1.0,0004*73
14:23:22.9 $GPGGA,062322.00,3015.6993069,N,12007.0310113,E,4,24,0.5,35.0155,M,7.094,M,0.1,0004*73
14:23:22.9 $GPGGA,062322.20,3015.6993090,N,12007.0310131,E,4,24,0.5,34.9952,M,7.094,M,0.2,0004*73
14:23:22.9 $GPGGA,062322.20,3015.6993090,N,12007.0310131,E,4,24,0.5,34.9952,M,7.094,M,0.3,0004*72
14:23:22.9 $GPGGA,062322.40,3015.6993089,N,12007.0310119,E,4,24,0.5,34.9922,M,7.094,M,0.4,0004*76
14:23:22.9 $GPGGA,062322.40,3015.6993089,N,12007.0310119,E,4,24,0.5,34.9922,M,7.094,M,0.5,0004*77
14:23:22.9 $GPGGA,062322.60,3015.6993083,N,12007.0310109,E,4,24,0.5,34.9981,M,7.094,M,0.6,0004*74
14:23:23.4 $GPGGA,062322.60,3015.6993083,N,12007.0310109,E,4,24,0.5,34.9981,M,7.094,M,0.7,0004*75
14:23:23.4 $GPGGA,062322.80,3015.6993077,N,12007.0310109,E,4,24,0.5,35.0030,M,7.094,M,0.8,0004*74
14:23:23.4 $GPGGA,062322.80,3015.6993077,N,12007.0310109,E,4,24,0.5,35.0030,M,7.094,M,0.9,0004*75
14:23:23.4 $GPGGA,062323.00,3015.6993077,N,12007.0310103,E,4,24,0.5,34.9988,M,7.094,M,1.0,0004*7C
14:23:23.4 $GPGGA,062323.00,3015.6993077,N,12007.0310103,E,4,24,0.5,34.9988,M,7.094,M,1.1,0004*7D
14:23:23.4 $GPGGA,062323.20,3015.6993088,N,12007.0310121,E,4,24,0.5,34.9972,M,7.094,M,0.2,0004*78
14:23:23.4 $GPGGA,062323.20,3015.6993088,N,12007.0310121,E,4,24,0.5,34.9972,M,7.094,M,0.3,0004*79
14:23:23.4 $GPGGA,062323.40,3015.6993087,N,12007.0310116,E,4,24,0.5,34.9985,M,7.094,M,0.4,0004*7B
14:23:23.4 $GPGGA,062323.40,3015.6993087,N,12007.0310116,E,4,24,0.5,34.9985,M,7.094,M,0.5,0004*7A
14:23:24.5 $GPGGA,062323.60,3015.6993079,N,12007.0310119,E,4,24,0.5,35.0032,M,7.094,M,0.6,0004*78
14:23:24.5 $GPGGA,062323.60,3015.6993079,N,12007.0310119,E,4,24,0.5,35.0032,M,7.094,M,0.7,0004*79
14:23:24.5 $GPGGA,062323.80,3015.6993073,N,12007.0310113,E,4,24,0.5,35.0050,M,7.094,M,0.8,0004*7C
14:23:24.5 $GPGGA,062323.80,3015.6993073,N,12007.0310113,E,4,24,0.5,35.0050,M,7.094,M,0.9,0004*7D
14:23:24.5 $GPGGA,062324.00,3015.6993070,N,12007.0310108,E,4,24,0.5,35.0066,M,7.094,M,1.0,0004*76
14:23:24.5 $GPGGA,062324.00,3015.6993070,N,12007.0310108,E,4,24,0.5,35.0066,M,7.094,M,0.1,0004*76
14:23:24.5 $GPGGA,062324.20,3015.6993103,N,12007.0310141,E,4,24,0.5,34.9930,M,7.094,M,0.2,0004*7D
14:23:24.5 $GPGGA,062324.20,3015.6993103,N,12007.0310141,E,4,24,0.5,34.9930,M,7.094,M,0.3,0004*7C
14:23:24.5 $GPGGA,062324.40,3015.6993105,N,12007.0310136,E,4,24,0.5,34.9916,M,7.094,M,0.4,0004*7F
14:23:25.5 $GPGGA,062324.40,3015.6993105,N,12007.0310136,E,4,24,0.5,34.9916,M,7.094,M,0.5,0004*7E
14:23:25.5 $GPGGA,062324.60,3015.6993096,N,12007.0310127,E,4,24,0.5,34.9956,M,7.094,M,0.6,0004*70
14:23:25.5 $GPGGA,062324.60,3015.6993096,N,12007.0310127,E,4,24,0.5,34.9956,M,7.094,M,0.7,0004*71
14:23:25.5 $GPGGA,062324.80,3015.6993093,N,12007.0310125,E,4,24,0.5,34.9789,M,7.094,M,0.8,0004*7B
14:23:25.5 $GPGGA,062324.80,3015.6993093,N,12007.0310125,E,4,24,0.5,34.9789,M,7.094,M,0.9,0004*7A
14:23:25.5 $GPGGA,062325.00,3015.6993095,N,12007.0310119,E,4,24,0.5,34.9797,M,7.094,M,1.0,0004*7D
14:23:25.5 $GPGGA,062325.00,3015.6993095,N,12007.0310119,E,4,24,0.5,34.9797,M,7.094,M,0.1,0004*7D
14:23:25.5 $GPGGA,062325.20,3015.6993071,N,12007.0310112,E,4,24,0.5,34.9899,M,7.094,M,0.2,0004*7C
14:23:25.5 $GPGGA,062325.20,3015.6993071,N,12007.0310112,E,4,24,0.5,34.9899,M,7.094,M,0.3,0004*7D
14:23:26.6 $GPGGA,062325.40,3015.6993075,N,12007.0310110,E,4,24,0.5,34.9885,M,7.094,M,0.4,0004*77
14:23:26.6 $GPGGA,062325.40,3015.6993075,N,12007.0310110,E,4,24,0.5,34.9885,M,7.094,M,0.5,0004*76
14:23:26.6 $GPGGA,062325.60,3015.6993064,N,12007.0310097,E,4,24,0.5,34.9942,M,7.094,M,0.6,0004*73
14:23:26.6 $GPGGA,062325.60,3015.6993064,N,12007.0310097,E,4,24,0.5,34.9942,M,7.094,M,0.7,0004*72
14:23:26.6 $GPGGA,062325.80,3015.6993061,N,12007.0310092,E,4,24,0.5,34.9976,M,7.094,M,0.8,0004*74
14:23:26.6 $GPGGA,062325.80,3015.6993061,N,12007.0310092,E,4,24,0.5,34.9976,M,7.094,M,0.9,0004*75
14:23:26.6 $GPGGA,062326.00,3015.6993050,N,12007.0310087,E,4,24,0.5,34.9981,M,7.094,M,1.0,0004*78
14:23:26.6 $GPGGA,062326.00,3015.6993050,N,12007.0310087,E,4,24,0.5,34.9981,M,7.094,M,0.1,0004*78
14:23:26.6 $GPGGA,062326.20,3015.6993075,N,12007.0310121,E,4,24,0.5,34.9916,M,7.094,M,0.2,0004*7D
14:23:27.7 $GPGGA,062326.20,3015.6993075,N,12007.0310121,E,4,24,0.5,34.9916,M,7.094,M,0.3,0004*7C
14:23:27.7 $GPGGA,062326.40,3015.6993078,N,12007.0310117,E,4,24,0.5,34.9918,M,7.094,M,0.4,0004*7B
14:23:27.7 $GPGGA,062326.40,3015.6993078,N,12007.0310117,E,4,24,0.5,34.9918,M,7.094,M,0.5,0004*7A
14:23:27.7 $GPGGA,062326.60,3015.6993084,N,12007.0310114,E,4,24,0.5,34.9925,M,7.094,M,0.6,0004*75
14:23:27.7 $GPGGA,062326.60,3015.6993084,N,12007.0310114,E,4,24,0.5,34.9925,M,7.094,M,0.7,0004*74
14:23:27.7 $GPGGA,062326.80,3015.6993072,N,12007.0310101,E,4,24,0.5,34.9917,M,7.094,M,0.8,0004*79
14:23:27.7 $GPGGA,062326.80,3015.6993072,N,12007.0310101,E,4,24,0.5,34.9917,M,7.094,M,0.9,0004*78
14:23:27.7 $GPGGA,062327.00,3015.6993076,N,12007.0310104,E,4,24,0.5,34.9916,M,7.094,M,1.0,0004*79
14:23:27.7 $GPGGA,062327.00,3015.6993076,N,12007.0310104,E,4,24,0.5,34.9916,M,7.094,M,0.1,0004*79
14:23:28.8 $GPGGA,062327.20,3015.6993070,N,12007.0310120,E,4,24,0.5,34.9939,M,7.094,M,0.2,0004*75
14:23:28.8 $GPGGA,062327.20,3015.6993070,N,12007.0310120,E,4,24,0.5,34.9939,M,7.094,M,0.3,0004*74
14:23:28.8 $GPGGA,062327.40,3015.6993075,N,12007.0310104,E,4,24,0.5,34.9929,M,7.094,M,0.4,0004*77
14:23:28.8 $GPGGA,062327.40,3015.6993075,N,12007.0310104,E,4,24,0.5,34.9929,M,7.094,M,0.5,0004*76
14:23:28.8 $GPGGA,062327.60,3015.6993078,N,12007.0310102,E,4,24,0.5,34.9892,M,7.094,M,0.6,0004*7D
14:23:28.8 $GPGGA,062327.60,3015.6993078,N,12007.0310102,E,4,24,0.5,34.9892,M,7.094,M,0.7,0004*7C
14:23:28.8 $GPGGA,062327.80,3015.6993061,N,12007.0310090,E,4,24,0.5,34.9952,M,7.094,M,0.8,0004*72
14:23:28.8 $GPGGA,062327.80,3015.6993061,N,12007.0310090,E,4,24,0.5,34.9952,M,7.094,M,0.9,0004*73
14:23:28.8 $GPGGA,062328.00,3015.6993067,N,12007.0310094,E,4,24,0.5,34.9938,M,7.094,M,1.0,0004*72
14:23:29.1 $GPGGA,062328.00,3015.6993067,N,12007.0310094,E,4,24,0.5,34.9938,M,7.094,M,1.1,0004*73
14:23:29.1 $GPGGA,062328.20,3015.6993070,N,12007.0310109,E,4,24,0.5,34.9970,M,7.094,M,0.2,0004*7C
14:23:29.1 $GPGGA,062328.20,3015.6993070,N,12007.0310109,E,4,24,0.5,34.9970,M,7.094,M,0.3,0004*7D
14:23:29.1 $GPGGA,062328.40,3015.6993071,N,12007.0310113,E,4,24,0.5,34.9917,M,7.094,M,0.4,0004*77
14:23:29.1 $GPGGA,062328.40,3015.6993071,N,12007.0310113,E,4,24,0.5,34.9917,M,7.094,M,0.5,0004*76
14:23:29.1 $GPGGA,062328.60,3015.6993076,N,12007.0310111,E,4,24,0.5,34.9900,M,7.094,M,0.6,0004*74
14:23:29.1 $GPGGA,062328.60,3015.6993076,N,12007.0310111,E,4,24,0.5,34.9900,M,7.094,M,0.7,0004*75
14:23:29.1 $GPGGA,062328.80,3015.6993069,N,12007.0310096,E,4,24,0.5,34.9952,M,7.094,M,0.8,0004*73
14:23:29.1 $GPGGA,062328.80,3015.6993069,N,12007.0310096,E,4,24,0.5,34.9952,M,7.094,M,0.9,0004*72
14:23:29.2 $GPGGA,062329.00,3015.6993066,N,12007.0310102,E,4,24,0.5,34.9909,M,7.094,M,1.0,0004*7E
14:23:29.2 $GPGGA,062329.00,3015.6993066,N,12007.0310102,E,4,24,0.5,34.9909,M,7.094,M,0.1,0004*7E
14:23:29.2 $GPGGA,062329.20,3015.6993085,N,12007.0310127,E,4,24,0.5,34.9864,M,7.094,M,0.2,0004*7F
14:23:29.2 $GPGGA,062329.20,3015.6993085,N,12007.0310127,E,4,24,0.5,34.9864,M,7.094,M,0.3,0004*7E
14:23:29.2 $GPGGA,062329.40,3015.6993081,N,12007.0310116,E,4,24,0.5,34.9836,M,7.094,M,0.4,0004*7E
14:23:29.2 $GPGGA,062329.40,3015.6993081,N,12007.0310116,E,4,24,0.5,34.9836,M,7.094,M,0.5,0004*7F
14:23:29.2 $GPGGA,062329.60,3015.6993074,N,12007.0310126,E,4,24,0.5,34.9870,M,7.094,M,0.6,0004*75
14:23:29.2 $GPGGA,062329.60,3015.6993074,N,12007.0310126,E,4,24,0.5,34.9870,M,7.094,M,0.7,0004*74
14:23:29.2 $GPGGA,062329.80,3015.6993054,N,12007.0310108,E,4,24,0.5,34.9922,M,7.094,M,0.8,0004*7D
14:23:30.3 $GPGGA,062329.80,3015.6993054,N,12007.0310108,E,4,24,0.5,34.9922,M,7.094,M,0.9,0004*7C
14:23:30.3 $GPGGA,062330.00,3015.6993058,N,12007.0310110,E,4,24,0.5,34.9847,M,7.094,M,1.0,0004*73
14:23:30.3 $GPGGA,062330.00,3015.6993058,N,12007.0310110,E,4,24,0.5,34.9847,M,7.094,M,0.1,0004*73
14:23:30.3 $GPGGA,062330.20,3015.6993093,N,12007.0310132,E,4,24,0.5,34.9792,M,7.094,M,0.2,0004*72
14:23:30.3 $GPGGA,062330.20,3015.6993093,N,12007.0310132,E,4,24,0.5,34.9792,M,7.094,M,0.3,0004*73
14:23:30.3 $GPGGA,062330.40,3015.6993091,N,12007.0310130,E,4,24,0.5,34.9806,M,7.094,M,0.4,0004*70
14:23:30.3 $GPGGA,062330.40,3015.6993091,N,12007.0310130,E,4,24,0.5,34.9806,M,7.094,M,0.5,0004*71
14:23:30.3 $GPGGA,062330.60,3015.6993088,N,12007.0310132,E,4,24,0.5,34.9795,M,7.094,M,0.6,0004*7F
14:23:30.3 $GPGGA,062330.60,3015.6993088,N,12007.0310132,E,4,24,0.5,34.9795,M,7.094,M,0.7,0004*7E
14:23:31.3 $GPGGA,062330.80,3015.6993074,N,12007.0310122,E,4,24,0.5,34.9833,M,7.094,M,0.8,0004*7E
14:23:31.3 $GPGGA,062330.80,3015.6993074,N,12007.0310122,E,4,24,0.5,34.9833,M,7.094,M,0.9,0004*7F
14:23:31.3 $GPGGA,062331.00,3015.6993071,N,12007.0310117,E,4,24,0.5,34.9835,M,7.094,M,1.0,0004*7B
14:23:31.3 $GPGGA,062331.00,3015.6993071,N,12007.0310117,E,4,24,0.5,34.9835,M,7.094,M,1.1,0004*7A
14:23:31.3 $GPGGA,062331.20,3015.6993079,N,12007.0310124,E,4,24,0.5,34.9856,M,7.094,M,0.2,0004*77
14:23:31.3 $GPGGA,062331.20,3015.6993079,N,12007.0310124,E,4,24,0.5,34.9856,M,7.094,M,0.3,0004*76
14:23:31.3 $GPGGA,062331.40,3015.6993078,N,12007.0310120,E,4,24,0.5,34.9841,M,7.094,M,0.4,0004*74
14:23:31.3 $GPGGA,062331.40,3015.6993078,N,12007.0310120,E,4,24,0.5,34.9841,M,7.094,M,0.5,0004*75
14:23:31.3 $GPGGA,062331.60,3015.6993072,N,12007.0310114,E,4,24,0.5,34.9827,M,7.094,M,0.6,0004*79
14:23:32.8 $GPGGA,062331.60,3015.6993072,N,12007.0310114,E,4,24,0.5,34.9827,M,7.094,M,0.7,0004*78
14:23:32.8 $GPGGA,062331.80,3015.6993070,N,12007.0310115,E,4,24,0.5,34.9839,M,7.094,M,0.8,0004*75
14:23:32.8 $GPGGA,062331.80,3015.6993070,N,12007.0310115,E,4,24,0.5,34.9839,M,7.094,M,0.9,0004*74
14:23:32.8 $GPGGA,062332.00,3015.6993067,N,12007.0310114,E,4,24,0.5,34.9846,M,7.094,M,1.0,0004*78
14:23:32.8 $GPGGA,062332.00,3015.6993067,N,12007.0310114,E,4,24,0.5,34.9846,M,7.094,M,1.1,0004*79
14:23:32.8 $GPGGA,062332.20,3015.6993071,N,12007.0310123,E,4,24,0.5,34.9857,M,7.094,M,0.2,0004*7A
14:23:32.8 $GPGGA,062332.20,3015.6993071,N,12007.0310123,E,4,24,0.5,34.9857,M,7.094,M,0.3,0004*7B
14:23:32.8 $GPGGA,062332.40,3015.6993078,N,12007.0310126,E,4,24,0.5,34.9952,M,7.094,M,0.4,0004*72
14:23:32.8 $GPGGA,062332.40,3015.6993078,N,12007.0310126,E,4,24,0.5,34.9952,M,7.094,M,0.5,0004*73
14:23:33.9 $GPGGA,062332.60,3015.6993077,N,12007.0310120,E,4,24,0.5,34.9963,M,7.094,M,0.6,0004*79
14:23:33.9 $GPGGA,062332.60,3015.6993077,N,12007.0310120,E,4,24,0.5,34.9963,M,7.094,M,0.7,0004*78
14:23:33.9 $GPGGA,062332.80,3015.6993072,N,12007.0310110,E,4,24,0.5,34.9967,M,7.094,M,0.8,0004*7B
14:23:33.9 $GPGGA,062332.80,3015.6993072,N,12007.0310110,E,4,24,0.5,34.9967,M,7.094,M,0.9,0004*7A
14:23:33.9 $GPGGA,062333.00,3015.6993071,N,12007.0310110,E,4,24,0.5,34.9980,M,7.094,M,1.0,0004*71
14:23:33.9 $GPGGA,062333.00,3015.6993071,N,12007.0310110,E,4,24,0.5,34.9980,M,7.094,M,1.1,0004*70
14:23:33.9 $GPGGA,062333.20,3015.6993080,N,12007.0310115,E,4,24,0.5,35.0075,M,7.094,M,0.2,0004*70
14:23:33.9 $GPGGA,062333.20,3015.6993080,N,12007.0310115,E,4,24,0.5,35.0075,M,7.094,M,0.3,0004*71
14:23:33.9 $GPGGA,062333.40,3015.6993083,N,12007.0310118,E,4,24,0.5,35.0020,M,7.094,M,0.4,0004*7E
14:23:34.0 $GPGGA,062333.40,3015.6993083,N,12007.0310118,E,4,24,0.5,35.0020,M,7.094,M,0.5,0004*7F
14:23:34.0 $GPGGA,062333.60,3015.6993070,N,12007.0310114,E,4,24,0.5,35.0066,M,7.094,M,0.6,0004*7C
14:23:34.0 $GPGGA,062333.60,3015.6993070,N,12007.0310114,E,4,24,0.5,35.0066,M,7.094,M,0.7,0004*7D
14:23:34.0 $GPGGA,062333.80,3015.6993068,N,12007.0310107,E,4,24,0.5,35.0053,M,7.094,M,0.8,0004*71
14:23:34.0 $GPGGA,062333.80,3015.6993068,N,12007.0310107,E,4,24,0.5,35.0053,M,7.094,M,0.9,0004*70
14:23:34.0 $GPGGA,062334.00,3015.6993067,N,12007.0310107,E,4,24,0.5,35.0010,M,7.094,M,1.0,0004*7F
14:23:34.0 $GPGGA,062334.00,3015.6993067,N,12007.0310107,E,4,24,0.5,35.0010,M,7.094,M,0.1,0004*7F
14:23:34.0 $GPGGA,062334.20,3015.6993087,N,12007.0310123,E,4,24,0.5,34.9950,M,7.094,M,0.2,0004*73
14:23:34.0 $GPGGA,062334.20,3015.6993087,N,12007.0310123,E,4,24,0.5,34.9950,M,7.094,M,0.3,0004*72
14:23:35.0 $GPGGA,062334.40,3015.6993078,N,12007.0310120,E,4,24,0.5,34.9934,M,7.094,M,0.4,0004*72
14:23:35.0 $GPGGA,062334.40,3015.6993078,N,12007.0310120,E,4,24,0.5,34.9934,M,7.094,M,0.5,0004*73
14:23:35.0 $GPGGA,062334.60,3015.6993078,N,12007.0310120,E,4,24,0.5,34.9970,M,7.094,M,0.6,0004*72
14:23:35.0 $GPGGA,062334.60,3015.6993078,N,12007.0310120,E,4,24,0.5,34.9970,M,7.094,M,0.7,0004*73
14:23:35.0 $GPGGA,062334.80,3015.6993068,N,12007.0310107,E,4,24,0.5,34.9991,M,7.094,M,0.8,0004*79
14:23:35.0 $GPGGA,062334.80,3015.6993068,N,12007.0310107,E,4,24,0.5,34.9991,M,7.094,M,0.9,0004*78
14:23:35.0 $GPGGA,062335.00,3015.6993065,N,12007.0310110,E,4,24,0.5,34.9996,M,7.094,M,1.0,0004*75
14:23:35.0 $GPGGA,062335.00,3015.6993065,N,12007.0310110,E,4,24,0.5,34.9996,M,7.094,M,1.1,0004*74
14:23:35.0 $GPGGA,062335.20,3015.6993079,N,12007.0310123,E,4,24,0.5,34.9998,M,7.094,M,0.2,0004*77
14:23:36.1 $GPGGA,062335.20,3015.6993079,N,12007.0310123,E,4,24,0.5,34.9998,M,7.094,M,0.3,0004*76
14:23:36.1 $GPGGA,062335.40,3015.6993084,N,12007.0310119,E,4,24,0.5,34.9967,M,7.094,M,0.4,0004*7C
14:23:36.1 $GPGGA,062335.40,3015.6993084,N,12007.0310119,E,4,24,0.5,34.9967,M,7.094,M,0.5,0004*7D
14:23:36.1 $GPGGA,062335.60,3015.6993073,N,12007.0310109,E,4,24,0.5,35.0042,M,7.094,M,0.6,0004*73
14:23:36.1 $GPGGA,062335.60,3015.6993073,N,12007.0310109,E,4,24,0.5,35.0042,M,7.094,M,0.7,0004*72
14:23:36.1 $GPGGA,062335.80,3015.6993072,N,12007.0310115,E,4,24,0.5,35.0054,M,7.094,M,0.8,0004*78
14:23:36.1 $GPGGA,062335.80,3015.6993072,N,12007.0310115,E,4,24,0.5,35.0054,M,7.094,M,0.9,0004*79
14:23:36.1 $GPGGA,062336.00,3015.6993073,N,12007.0310108,E,4,24,0.5,35.0048,M,7.094,M,1.0,0004*7A
14:23:36.1 $GPGGA,062336.00,3015.6993073,N,12007.0310108,E,4,24,0.5,35.0048,M,7.094,M,0.1,0004*7A
14:23:37.4 $GPGGA,062336.20,3015.6993080,N,12007.0310122,E,4,24,0.5,34.9988,M,7.094,M,0.2,0004*72
14:23:37.4 $GPGGA,062336.20,3015.6993080,N,12007.0310122,E,4,24,0.5,34.9988,M,7.094,M,0.3,0004*73
14:23:37.4 $GPGGA,062336.40,3015.6993083,N,12007.0310117,E,4,24,0.5,35.0048,M,7.094,M,0.4,0004*7A
14:23:37.4 $GPGGA,062336.40,3015.6993083,N,12007.0310117,E,4,24,0.5,35.0048,M,7.094,M,0.5,0004*7B
14:23:37.4 $GPGGA,062336.60,3015.6993079,N,12007.0310111,E,4,24,0.5,35.0024,M,7.094,M,0.6,0004*73
14:23:37.4 $GPGGA,062336.60,3015.6993079,N,12007.0310111,E,4,24,0.5,35.0024,M,7.094,M,0.7,0004*72
14:23:37.4 $GPGGA,062336.80,3015.6993076,N,12007.0310105,E,4,24,0.5,34.9980,M,7.094,M,0.8,0004*76
14:23:37.4 $GPGGA,062336.80,3015.6993076,N,12007.0310105,E,4,24,0.5,34.9980,M,7.094,M,0.9,0004*77
14:23:37.4 $GPGGA,062337.00,3015.6993080,N,12007.0310105,E,4,24,0.5,34.9953,M,7.094,M,1.0,0004*71
14:23:38.4 $GPGGA,062337.00,3015.6993080,N,12007.0310105,E,4,24,0.5,34.9953,M,7.094,M,1.1,0004*70
14:23:38.4 $GPGGA,062337.20,3015.6993083,N,12007.0310132,E,4,24,0.5,34.9971,M,7.094,M,0.2,0004*77
14:23:38.4 $GPGGA,062337.20,3015.6993083,N,12007.0310132,E,4,24,0.5,34.9971,M,7.094,M,0.3,0004*76
14:23:38.4 $GPGGA,062337.40,3015.6993080,N,12007.0310133,E,4,24,0.5,34.9967,M,7.094,M,0.4,0004*72
14:23:38.4 $GPGGA,062337.40,3015.6993080,N,12007.0310133,E,4,24,0.5,34.9967,M,7.094,M,0.5,0004*73
14:23:38.4 $GPGGA,062337.60,3015.6993075,N,12007.0310127,E,4,24,0.5,34.9985,M,7.094,M,0.6,0004*71
14:23:38.4 $GPGGA,062337.60,3015.6993075,N,12007.0310127,E,4,24,0.5,34.9985,M,7.094,M,0.7,0004*70
14:23:38.4 $GPGGA,062337.80,3015.6993076,N,12007.0310124,E,4,24,0.5,34.9975,M,7.094,M,0.8,0004*7E
14:23:38.4 $GPGGA,062337.80,3015.6993076,N,12007.0310124,E,4,24,0.5,34.9975,M,7.094,M,0.9,0004*7F
14:23:38.5 $GPGGA,062338.00,3015.6993077,N,12007.0310112,E,4,24,0.5,35.0004,M,7.094,M,1.0,0004*73
14:23:38.5 $GPGGA,062338.00,3015.6993077,N,12007.0310112,E,4,24,0.5,35.0004,M,7.094,M,0.1,0004*73
14:23:38.5 $GPGGA,062338.20,3015.6993072,N,12007.0310128,E,4,24,0.5,34.9981,M,7.094,M,0.2,0004*72
14:23:38.5 $GPGGA,062338.20,3015.6993072,N,12007.0310128,E,4,24,0.5,34.9981,M,7.094,M,0.3,0004*73
14:23:38.5 $GPGGA,062338.40,3015.6993092,N,12007.0310135,E,4,25,0.5,34.9935,M,7.094,M,0.4,0004*7E
14:23:38.5 $GPGGA,062338.40,3015.6993092,N,12007.0310135,E,4,25,0.5,34.9935,M,7.094,M,0.5,0004*7F
14:23:38.5 $GPGGA,062338.60,3015.6993087,N,12007.0310120,E,4,25,0.5,34.9967,M,7.094,M,0.6,0004*79
14:23:38.5 $GPGGA,062338.60,3015.6993087,N,12007.0310120,E,4,25,0.5,34.9967,M,7.094,M,0.7,0004*78
14:23:38.5 $GPGGA,062338.80,3015.6993090,N,12007.0310118,E,4,25,0.5,34.9930,M,7.094,M,0.8,0004*76
14:23:39.6 $GPGGA,062338.80,3015.6993090,N,12007.0310118,E,4,25,0.5,34.9930,M,7.094,M,0.9,0004*77
14:23:39.6 $GPGGA,062339.00,3015.6993082,N,12007.0310121,E,4,25,0.5,34.9957,M,7.094,M,1.0,0004*7E
14:23:39.6 $GPGGA,062339.00,3015.6993082,N,12007.0310121,E,4,25,0.5,34.9957,M,7.094,M,0.1,0004*7E
14:23:39.6 $GPGGA,062339.20,3015.6993104,N,12007.0310134,E,4,25,0.5,34.9942,M,7.094,M,0.2,0004*70
14:23:39.6 $GPGGA,062339.20,3015.6993104,N,12007.0310134,E,4,25,0.5,34.9942,M,7.094,M,0.3,0004*71
14:23:39.6 $GPGGA,062339.40,3015.6993108,N,12007.0310132,E,4,25,0.5,34.9912,M,7.094,M,0.4,0004*7F
14:23:39.6 $GPGGA,062339.40,3015.6993108,N,12007.0310132,E,4,25,0.5,34.9912,M,7.094,M,0.5,0004*7E
14:23:39.6 $GPGGA,062339.60,3015.6993102,N,12007.0310124,E,4,25,0.5,34.9916,M,7.094,M,0.6,0004*76
14:23:39.6 $GPGGA,062339.60,3015.6993102,N,12007.0310124,E,4,25,0.5,34.9916,M,7.094,M,0.7,0004*77
14:23:40.6 $GPGGA,062339.80,3015.6993103,N,12007.0310120,E,4,25,0.5,34.9956,M,7.094,M,0.8,0004*77
14:23:40.6 $GPGGA,062339.80,3015.6993103,N,12007.0310120,E,4,25,0.5,34.9956,M,7.094,M,0.9,0004*76
14:23:40.6 $GPGGA,062340.00,3015.6993103,N,12007.0310118,E,4,25,0.5,34.9884,M,7.094,M,1.0,0004*7D
14:23:40.6 $GPGGA,062340.00,3015.6993103,N,12007.0310118,E,4,25,0.5,34.9884,M,7.094,M,0.1,0004*7D
14:23:40.6 $GPGGA,062340.20,3015.6993094,N,12007.0310129,E,4,25,0.5,34.9960,M,7.094,M,0.2,0004*7A
14:23:40.6 $GPGGA,062340.20,3015.6993094,N,12007.0310129,E,4,25,0.5,34.9960,M,7.094,M,0.3,0004*7B
14:23:40.6 $GPGGA,062340.40,3015.6993088,N,12007.0310130,E,4,25,0.5,35.0018,M,7.094,M,0.4,0004*71
14:23:40.6 $GPGGA,062340.40,3015.6993088,N,12007.0310130,E,4,25,0.5,35.0018,M,7.094,M,0.5,0004*70
14:23:40.6 $GPGGA,062340.60,3015.6993095,N,12007.0310128,E,4,25,0.5,34.9956,M,7.094,M,0.6,0004*7F
14:23:41.0 $GPGGA,062340.60,3015.6993095,N,12007.0310128,E,4,25,0.5,34.9956,M,7.094,M,0.7,0004*7E
14:23:41.0 $GPGGA,062340.80,3015.6993080,N,12007.0310120,E,4,25,0.5,35.0008,M,7.094,M,0.8,0004*79
14:23:41.0 $GPGGA,062340.80,3015.6993080,N,12007.0310120,E,4,25,0.5,35.0008,M,7.094,M,0.9,0004*78
14:23:41.0 $GPGGA,062341.00,3015.6993088,N,12007.0310122,E,4,25,0.5,34.9995,M,7.094,M,1.0,0004*76
14:23:41.0 $GPGGA,062341.00,3015.6993088,N,12007.0310122,E,4,25,0.5,34.9995,M,7.094,M,0.1,0004*76
14:23:41.0 $GPGGA,062341.20,3015.6993094,N,12007.0310141,E,4,25,0.5,35.0013,M,7.094,M,0.2,0004*70
14:23:41.0 $GPGGA,062341.20,3015.6993094,N,12007.0310141,E,4,25,0.5,35.0013,M,7.094,M,0.3,0004*71
14:23:41.0 $GPGGA,062341.40,3015.6993094,N,12007.0310133,E,4,25,0.5,34.9970,M,7.094,M,0.4,0004*71
14:23:41.0 $GPGGA,062341.40,3015.6993094,N,12007.0310133,E,4,25,0.5,34.9970,M,7.094,M,0.5,0004*70
14:23:42.0 $GPGGA,062341.60,3015.6993082,N,12007.0310123,E,4,25,0.5,34.9982,M,7.094,M,0.6,0004*7A
14:23:42.0 $GPGGA,062341.60,3015.6993082,N,12007.0310123,E,4,25,0.5,34.9982,M,7.094,M,0.7,0004*7B
14:23:42.0 $GPGGA,062341.80,3015.6993095,N,12007.0310127,E,4,25,0.5,34.9878,M,7.094,M,0.8,0004*7C
14:23:42.0 $GPGGA,062341.80,3015.6993095,N,12007.0310127,E,4,25,0.5,34.9878,M,7.094,M,0.9,0004*7D
14:23:42.0 $GPGGA,062342.00,3015.6993095,N,12007.0310124,E,4,25,0.5,34.9901,M,7.094,M,1.0,0004*72
14:23:42.0 $GPGGA,062342.00,3015.6993095,N,12007.0310124,E,4,25,0.5,34.9901,M,7.094,M,0.1,0004*72
14:23:42.0 $GPGGA,062342.20,3015.6993114,N,12007.0310128,E,4,25,0.5,34.9825,M,7.094,M,0.2,0004*70
14:23:42.0 $GPGGA,062342.20,3015.6993114,N,12007.0310128,E,4,25,0.5,34.9825,M,7.094,M,0.3,0004*71
14:23:42.0 $GPGGA,062342.40,3015.6993089,N,12007.0310119,E,4,25,0.5,34.9955,M,7.094,M,0.4,0004*71
14:23:43.1 $GPGGA,062342.40,3015.6993089,N,12007.0310119,E,4,25,0.5,34.9955,M,7.094,M,0.5,0004*70
14:23:43.1 $GPGGA,062342.60,3015.6993088,N,12007.0310118,E,4,25,0.5,34.9878,M,7.094,M,0.6,0004*7F
14:23:43.1 $GPGGA,062342.60,3015.6993088,N,12007.0310118,E,4,25,0.5,34.9878,M,7.094,M,0.7,0004*7E
14:23:43.1 $GPGGA,062342.80,3015.6993088,N,12007.0310111,E,4,25,0.5,34.9728,M,7.094,M,0.8,0004*7C
14:23:43.1 $GPGGA,062342.80,3015.6993088,N,12007.0310111,E,4,25,0.5,34.9728,M,7.094,M,0.9,0004*7D
14:23:43.1 $GPGGA,062343.00,3015.6993081,N,12007.0310110,E,4,25,0.5,34.9705,M,7.094,M,1.0,0004*7B
14:23:43.1 $GPGGA,062343.00,3015.6993081,N,12007.0310110,E,4,25,0.5,34.9705,M,7.094,M,0.1,0004*7B
14:23:43.1 $GPGGA,062343.20,3015.6993096,N,12007.0310138,E,4,25,0.5,34.9747,M,7.094,M,0.2,0004*70
14:23:43.1 $GPGGA,062343.20,3015.6993096,N,12007.0310138,E,4,25,0.5,34.9747,M,7.094,M,0.3,0004*71
14:23:44.2 $GPGGA,062343.40,3015.6993094,N,12007.0310146,E,4,25,0.5,34.9885,M,7.094,M,0.4,0004*7A
14:23:44.2 $GPGGA,062343.40,3015.6993094,N,12007.0310146,E,4,25,0.5,34.9885,M,7.094,M,0.5,0004*7B
14:23:44.2 $GPGGA,062343.60,3015.6993090,N,12007.0310136,E,4,25,0.5,34.9882,M,7.094,M,0.6,0004*7E
14:23:44.2 $GPGGA,062343.60,3015.6993090,N,12007.0310136,E,4,25,0.5,34.9882,M,7.094,M,0.7,0004*7F
14:23:44.2 $GPGGA,062343.80,3015.6993079,N,12007.0310131,E,4,25,0.5,34.9938,M,7.094,M,0.8,0004*7E
14:23:44.2 $GPGGA,062343.80,3015.6993079,N,12007.0310131,E,4,25,0.5,34.9938,M,7.094,M,0.9,0004*7F
14:23:44.2 $GPGGA,062344.00,3015.6993072,N,12007.0310122,E,4,25,0.5,34.9981,M,7.094,M,1.0,0004*73
14:23:44.2 $GPGGA,062344.00,3015.6993072,N,12007.0310122,E,4,25,0.5,34.9981,M,7.094,M,1.1,0004*72
14:23:44.2 $GPGGA,062344.20,3015.6993092,N,12007.0310138,E,4,25,0.5,34.9856,M,7.094,M,0.2,0004*7C
14:23:45.2 $GPGGA,062344.20,3015.6993092,N,12007.0310138,E,4,25,0.5,34.9856,M,7.094,M,0.3,0004*7D
14:23:45.2 $GPGGA,062344.40,3015.6993084,N,12007.0310131,E,4,25,0.5,34.9881,M,7.094,M,0.4,0004*78
14:23:45.2 $GPGGA,062344.40,3015.6993084,N,12007.0310131,E,4,25,0.5,34.9881,M,7.094,M,0.5,0004*79
14:23:45.2 $GPGGA,062344.60,3015.6993083,N,12007.0310139,E,4,25,0.5,34.9836,M,7.094,M,0.6,0004*7B
14:23:45.2 $GPGGA,062344.60,3015.6993083,N,12007.0310139,E,4,25,0.5,34.9836,M,7.094,M,0.7,0004*7A
14:23:45.2 $GPGGA,062344.80,3015.6993062,N,12007.0310119,E,4,25,0.5,34.9881,M,7.094,M,0.8,0004*7A
14:23:45.2 $GPGGA,062344.80,3015.6993062,N,12007.0310119,E,4,25,0.5,34.9881,M,7.094,M,0.9,0004*7B
14:23:45.2 $GPGGA,062345.00,3015.6993070,N,12007.0310121,E,4,25,0.5,34.9843,M,7.094,M,1.0,0004*7C
14:23:45.2 $GPGGA,062345.00,3015.6993070,N,12007.0310121,E,4,25,0.5,34.9843,M,7.094,M,0.1,0004*7C
14:23:46.6 $GPGGA,062345.20,3015.6993091,N,12007.0310147,E,4,25,0.5,34.9873,M,7.094,M,0.2,0004*71
14:23:46.6 $GPGGA,062345.20,3015.6993091,N,12007.0310147,E,4,25,0.5,34.9873,M,7.094,M,0.3,0004*70
14:23:46.6 $GPGGA,062345.40,3015.6993094,N,12007.0310142,E,4,25,0.5,34.9799,M,7.094,M,0.4,0004*7A
14:23:46.6 $GPGGA,062345.40,3015.6993094,N,12007.0310142,E,4,25,0.5,34.9799,M,7.094,M,0.5,0004*7B
14:23:46.6 $GPGGA,062345.60,3015.6993077,N,12007.0310134,E,4,25,0.5,34.9847,M,7.094,M,0.6,0004*7A
14:23:46.6 $GPGGA,062345.60,3015.6993077,N,12007.0310134,E,4,25,0.5,34.9847,M,7.094,M,0.7,0004*7B
14:23:46.6 $GPGGA,062345.80,3015.6993076,N,12007.0310128,E,4,25,0.5,34.9855,M,7.094,M,0.8,0004*75
14:23:46.6 $GPGGA,062345.80,3015.6993076,N,12007.0310128,E,4,25,0.5,34.9855,M,7.094,M,0.9,0004*74
14:23:46.6 $GPGGA,062346.00,3015.6993070,N,12007.0310121,E,4,25,0.5,34.9869,M,7.094,M,1.0,0004*77
14:23:47.6 $GPGGA,062346.00,3015.6993070,N,12007.0310121,E,4,25,0.5,34.9869,M,7.094,M,0.1,0004*77
14:23:47.6 $GPGGA,062346.20,3015.6993087,N,12007.0310139,E,4,25,0.5,34.9790,M,7.094,M,0.2,0004*7E
14:23:47.6 $GPGGA,062346.20,3015.6993087,N,12007.0310139,E,4,25,0.5,34.9790,M,7.094,M,0.3,0004*7F
14:23:47.6 $GPGGA,062346.40,3015.6993089,N,12007.0310135,E,4,25,0.5,34.9777,M,7.094,M,0.4,0004*75
14:23:47.6 $GPGGA,062346.40,3015.6993089,N,12007.0310135,E,4,25,0.5,34.9777,M,7.094,M,0.5,0004*74
14:23:47.6 $GPGGA,062346.60,3015.6993069,N,12007.0310114,E,4,25,0.5,34.9857,M,7.094,M,0.6,0004*75
14:23:47.6 $GPGGA,062346.60,3015.6993069,N,12007.0310114,E,4,25,0.5,34.9857,M,7.094,M,0.7,0004*74
14:23:47.6 $GPGGA,062346.80,3015.6993079,N,12007.0310121,E,4,25,0.5,34.9784,M,7.094,M,0.8,0004*73
14:23:47.6 $GPGGA,062346.80,3015.6993079,N,12007.0310121,E,4,25,0.5,34.9784,M,7.094,M,0.9,0004*72
14:23:47.7 $GPGGA,062347.00,3015.6993084,N,12007.0310129,E,4,25,0.5,34.9738,M,7.094,M,1.0,0004*7E
14:23:47.7 $GPGGA,062347.00,3015.6993084,N,12007.0310129,E,4,25,0.5,34.9738,M,7.094,M,1.1,0004*7F
14:23:47.7 $GPGGA,062347.20,3015.6993072,N,12007.0310118,E,4,25,0.5,34.9750,M,7.094,M,1.2,0004*7B
14:23:47.7 $GPGGA,062347.20,3015.6993072,N,12007.0310118,E,4,25,0.5,34.9750,M,7.094,M,1.3,0004*7A
14:23:47.7 $GPGGA,062347.40,3015.6993077,N,12007.0310128,E,4,25,0.5,34.9836,M,7.094,M,0.4,0004*73
14:23:47.7 $GPGGA,062347.40,3015.6993077,N,12007.0310128,E,4,25,0.5,34.9836,M,7.094,M,0.5,0004*72
14:23:47.7 $GPGGA,062347.60,3015.6993066,N,12007.0310115,E,4,25,0.5,34.9886,M,7.094,M,0.6,0004*76
14:23:47.7 $GPGGA,062347.60,3015.6993066,N,12007.0310115,E,4,25,0.5,34.9886,M,7.094,M,0.7,0004*77
14:23:47.7 $GPGGA,062347.80,3015.6993067,N,12007.0310115,E,4,25,0.5,34.9856,M,7.094,M,0.8,0004*7A
14:23:48.7 $GPGGA,062347.80,3015.6993067,N,12007.0310115,E,4,25,0.5,34.9856,M,7.094,M,0.9,0004*7B
14:23:48.7 $GPGGA,062348.00,3015.6993050,N,12007.0310106,E,4,25,0.5,34.9918,M,7.094,M,1.0,0004*79
14:23:48.7 $GPGGA,062348.00,3015.6993050,N,12007.0310106,E,4,25,0.5,34.9918,M,7.094,M,0.1,0004*79
14:23:48.7 $GPGGA,062348.20,3015.6993078,N,12007.0310120,E,4,25,0.5,34.9795,M,7.094,M,0.2,0004*7D
14:23:48.7 $GPGGA,062348.20,3015.6993078,N,12007.0310120,E,4,25,0.5,34.9795,M,7.094,M,0.3,0004*7C
14:23:48.7 $GPGGA,062348.40,3015.6993069,N,12007.0310118,E,4,25,0.5,34.9825,M,7.094,M,0.4,0004*72
14:23:48.7 $GPGGA,062348.40,3015.6993069,N,12007.0310118,E,4,25,0.5,34.9825,M,7.094,M,0.5,0004*73
14:23:48.7 $GPGGA,062348.60,3015.6993062,N,12007.0310108,E,4,25,0.5,34.9834,M,7.094,M,0.6,0004*78
14:23:48.7 $GPGGA,062348.60,3015.6993062,N,12007.0310108,E,4,25,0.5,34.9834,M,7.094,M,0.7,0004*79
14:23:49.8 $GPGGA,062348.80,3015.6993069,N,12007.0310109,E,4,25,0.5,34.9787,M,7.094,M,0.8,0004*75
14:23:49.8 $GPGGA,062348.80,3015.6993069,N,12007.0310109,E,4,25,0.5,34.9787,M,7.094,M,0.9,0004*74
14:23:49.8 $GPGGA,062349.00,3015.6993068,N,12007.0310115,E,4,25,0.5,34.9829,M,7.094,M,1.0,0004*72
14:23:49.8 $GPGGA,062349.00,3015.6993068,N,12007.0310115,E,4,25,0.5,34.9829,M,7.094,M,1.1,0004*73
14:23:49.8 $GPGGA,062349.20,3015.6993076,N,12007.0310133,E,4,25,0.5,34.9751,M,7.094,M,0.2,0004*78
14:23:49.8 $GPGGA,062349.20,3015.6993076,N,12007.0310133,E,4,25,0.5,34.9751,M,7.094,M,0.3,0004*79
14:23:49.8 $GPGGA,062349.40,3015.6993083,N,12007.0310133,E,4,25,0.5,34.9721,M,7.094,M,0.4,0004*75
14:23:49.8 $GPGGA,062349.40,3015.6993083,N,12007.0310133,E,4,25,0.5,34.9721,M,7.094,M,0.5,0004*74
14:23:49.8 $GPGGA,062349.60,3015.6993078,N,12007.0310127,E,4,25,0.5,34.9737,M,7.094,M,0.6,0004*73
14:23:49.8 $GPGGA,062349.60,3015.6993078,N,12007.0310127,E,4,25,0.5,34.9737,M,7.094,M,0.7,0004*72
14:23:50.1 $GPGGA,062349.80,3015.6993078,N,12007.0310128,E,4,25,0.5,34.9739,M,7.094,M,0.8,0004*72
14:23:50.1 $GPGGA,062349.80,3015.6993078,N,12007.0310128,E,4,25,0.5,34.9739,M,7.094,M,0.9,0004*73
14:23:50.1 $GPGGA,062350.00,3015.6993079,N,12007.0310123,E,4,25,0.5,34.9682,M,7.094,M,1.0,0004*70
14:23:50.1 $GPGGA,062350.00,3015.6993079,N,12007.0310123,E,4,25,0.5,34.9682,M,7.094,M,0.1,0004*70
14:23:50.1 $GPGGA,062350.20,3015.6993078,N,12007.0310133,E,4,25,0.5,34.9731,M,7.094,M,0.2,0004*78
14:23:50.1 $GPGGA,062350.20,3015.6993078,N,12007.0310133,E,4,25,0.5,34.9731,M,7.094,M,0.3,0004*79
14:23:50.1 $GPGGA,062350.40,3015.6993062,N,12007.0310121,E,4,25,0.5,34.9815,M,7.094,M,0.4,0004*79
14:23:50.1 $GPGGA,062350.40,3015.6993062,N,12007.0310121,E,4,25,0.5,34.9815,M,7.094,M,0.5,0004*78
14:23:51.1 $GPGGA,062350.60,3015.6993066,N,12007.0310124,E,4,25,0.5,34.9749,M,7.094,M,0.6,0004*7E
14:23:51.1 $GPGGA,062350.60,3015.6993066,N,12007.0310124,E,4,25,0.5,34.9749,M,7.094,M,0.7,0004*7F
14:23:51.1 $GPGGA,062350.80,3015.6993052,N,12007.0310123,E,4,25,0.5,34.9855,M,7.094,M,0.8,0004*7C
14:23:51.1 $GPGGA,062350.80,3015.6993052,N,12007.0310123,E,4,25,0.5,34.9855,M,7.094,M,0.9,0004*7D
14:23:51.1 $GPGGA,062351.00,3015.6993053,N,12007.0310107,E,4,25,0.5,34.9852,M,7.094,M,1.0,0004*7C
14:23:51.1 $GPGGA,062351.00,3015.6993053,N,12007.0310107,E,4,25,0.5,34.9852,M,7.094,M,1.1,0004*7D
14:23:51.1 $GPGGA,062351.20,3015.6993076,N,12007.0310137,E,4,25,0.5,34.9773,M,7.094,M,0.2,0004*75
14:23:51.1 $GPGGA,062351.20,3015.6993076,N,12007.0310137,E,4,25,0.5,34.9773,M,7.094,M,0.3,0004*74
14:23:51.1 $GPGGA,062351.40,3015.6993063,N,12007.0310126,E,4,25,0.5,34.9783,M,7.094,M,0.4,0004*7E
14:23:51.1 $GPGGA,062351.40,3015.6993063,N,12007.0310126,E,4,25,0.5,34.9783,M,7.094,M,0.5,0004*7F
14:23:52.2 $GPGGA,062351.60,3015.6993057,N,12007.0310128,E,4,25,0.5,34.9855,M,7.094,M,0.6,0004*73
14:23:52.2 $GPGGA,062351.60,3015.6993057,N,12007.0310128,E,4,25,0.5,34.9855,M,7.094,M,0.7,0004*72
14:23:52.2 $GPGGA,062351.80,3015.6993043,N,12007.0310110,E,4,25,0.5,34.9879,M,7.094,M,0.8,0004*73
14:23:52.2 $GPGGA,062351.80,3015.6993043,N,12007.0310110,E,4,25,0.5,34.9879,M,7.094,M,0.9,0004*72
14:23:52.2 $GPGGA,062352.00,3015.6993050,N,12007.0310109,E,4,25,0.5,34.9852,M,7.094,M,1.0,0004*72
14:23:52.2 $GPGGA,062352.00,3015.6993050,N,12007.0310109,E,4,25,0.5,34.9852,M,7.094,M,1.1,0004*73
14:23:52.2 $GPGGA,062352.20,3015.6993068,N,12007.0310130,E,4,25,0.5,34.9790,M,7.094,M,0.2,0004*73
14:23:52.2 $GPGGA,062352.20,3015.6993068,N,12007.0310130,E,4,25,0.5,34.9790,M,7.094,M,0.3,0004*72
14:23:53.3 $GPGGA,062352.40,3015.6993075,N,12007.0310119,E,4,25,0.5,34.9815,M,7.094,M,0.4,0004*76
14:23:53.3 $GPGGA,062352.40,3015.6993075,N,12007.0310119,E,4,25,0.5,34.9815,M,7.094,M,0.5,0004*77
14:23:53.3 $GPGGA,062352.60,3015.6993079,N,12007.0310129,E,4,25,0.5,34.9759,M,7.094,M,0.6,0004*7E
14:23:53.3 $GPGGA,062352.60,3015.6993079,N,12007.0310129,E,4,25,0.5,34.9759,M,7.094,M,0.7,0004*7F
14:23:53.3 $GPGGA,062352.80,3015.6993075,N,12007.0310121,E,4,25,0.5,34.9794,M,7.094,M,0.8,0004*7B
14:23:53.3 $GPGGA,062352.80,3015.6993075,N,12007.0310121,E,4,25,0.5,34.9794,M,7.094,M,0.9,0004*7A
14:23:53.3 $GPGGA,062353.00,3015.6993066,N,12007.0310106,E,4,25,0.5,34.9789,M,7.094,M,1.0,0004*70
14:23:53.3 $GPGGA,062353.00,3015.6993066,N,12007.0310106,E,4,25,0.5,34.9789,M,7.094,M,0.1,0004*70
14:23:53.3 $GPGGA,062353.20,3015.6993070,N,12007.0310126,E,4,25,0.5,34.9741,M,7.094,M,0.2,0004*70
14:23:53.3 $GPGGA,062353.20,3015.6993070,N,12007.0310126,E,4,25,0.5,34.9741,M,7.094,M,0.3,0004*71
14:23:54.4 $GPGGA,062353.40,3015.6993059,N,12007.0310121,E,4,25,0.5,34.9804,M,7.094,M,0.4,0004*72
14:23:54.4 $GPGGA,062353.40,3015.6993059,N,12007.0310121,E,4,25,0.5,34.9804,M,7.094,M,0.5,0004*73
14:23:54.4 $GPGGA,062353.60,3015.6993050,N,12007.0310112,E,4,25,0.5,34.9822,M,7.094,M,0.6,0004*7F
14:23:54.4 $GPGGA,062353.60,3015.6993050,N,12007.0310112,E,4,25,0.5,34.9822,M,7.094,M,0.7,0004*7E
14:23:54.4 $GPGGA,062353.80,3015.6993054,N,12007.0310119,E,4,25,0.5,34.9760,M,7.094,M,0.8,0004*79
14:23:54.4 $GPGGA,062353.80,3015.6993054,N,12007.0310119,E,4,25,0.5,34.9760,M,7.094,M,0.9,0004*78
14:23:54.4 $GPGGA,062354.00,3015.6993051,N,12007.0310114,E,4,25,0.5,34.9766,M,7.094,M,1.0,0004*71
14:23:54.4 $GPGGA,062354.00,3015.6993051,N,12007.0310114,E,4,25,0.5,34.9766,M,7.094,M,0.1,0004*71
14:23:55.5 $GPGGA,062354.20,3015.6993053,N,12007.0310132,E,4,25,0.5,34.9853,M,7.094,M,0.2,0004*7F
14:23:55.5 $GPGGA,062354.20,3015.6993053,N,12007.0310132,E,4,25,0.5,34.9853,M,7.094,M,0.3,0004*7E
14:23:55.5 $GPGGA,062354.40,3015.6993047,N,12007.0310123,E,4,25,0.5,34.9848,M,7.094,M,0.4,0004*70
14:23:55.5 $GPGGA,062354.40,3015.6993047,N,12007.0310123,E,4,25,0.5,34.9848,M,7.094,M,0.5,0004*71
14:23:55.5 $GPGGA,062354.60,3015.6993046,N,12007.0310117,E,4,25,0.5,34.9858,M,7.094,M,0.6,0004*77
14:23:55.5 $GPGGA,062354.60,3015.6993046,N,12007.0310117,E,4,25,0.5,34.9858,M,7.094,M,0.7,0004*76
14:23:55.5 $GPGGA,062354.80,3015.6993034,N,12007.0310110,E,4,25,0.5,34.9863,M,7.094,M,0.8,0004*7D
14:23:55.5 $GPGGA,062354.80,3015.6993034,N,12007.0310110,E,4,25,0.5,34.9863,M,7.094,M,0.9,0004*7C
14:23:55.5 $GPGGA,062355.00,3015.6993047,N,12007.0310113,E,4,25,0.5,34.9840,M,7.094,M,1.0,0004*7B
14:23:55.5 $GPGGA,062355.00,3015.6993047,N,12007.0310113,E,4,25,0.5,34.9840,M,7.094,M,0.1,0004*7B
14:23:56.7 $GPGGA,062355.20,3015.6993034,N,12007.0310116,E,4,25,0.5,34.9993,M,7.094,M,0.2,0004*74
14:23:56.7 $GPGGA,062355.20,3015.6993034,N,12007.0310116,E,4,25,0.5,34.9993,M,7.094,M,0.3,0004*75
14:23:56.7 $GPGGA,062355.40,3015.6993053,N,12007.0310116,E,4,25,0.5,34.9864,M,7.094,M,0.4,0004*7C
14:23:56.7 $GPGGA,062355.40,3015.6993053,N,12007.0310116,E,4,25,0.5,34.9864,M,7.094,M,0.5,0004*7D
14:23:56.7 $GPGGA,062355.60,3015.6993047,N,12007.0310118,E,4,25,0.5,34.9867,M,7.094,M,0.6,0004*74
14:23:56.7 $GPGGA,062355.60,3015.6993047,N,12007.0310118,E,4,25,0.5,34.9867,M,7.094,M,0.7,0004*75
14:23:56.7 $GPGGA,062355.80,3015.6993042,N,12007.0310115,E,4,25,0.5,34.9899,M,7.094,M,0.8,0004*7D
14:23:56.7 $GPGGA,062355.80,3015.6993042,N,12007.0310115,E,4,25,0.5,34.9899,M,7.094,M,0.9,0004*7C
14:23:56.7 $GPGGA,062356.00,3015.6993032,N,12007.0310103,E,4,25,0.5,34.9951,M,7.094,M,1.0,0004*7A
14:23:56.7 $GPGGA,062356.00,3015.6993032,N,12007.0310103,E,4,25,0.5,34.9951,M,7.094,M,0.1,0004*7A
14:23:56.7 $GPGGA,062356.20,3015.6993059,N,12007.0310133,E,4,25,0.5,34.9827,M,7.094,M,0.2,0004*75
14:23:56.7 $GPGGA,062356.20,3015.6993059,N,12007.0310133,E,4,25,0.5,34.9827,M,7.094,M,0.3,0004*74
14:23:56.7 $GPGGA,062356.40,3015.6993053,N,12007.0310126,E,4,25,0.5,34.9835,M,7.094,M,0.4,0004*78
14:23:56.7 $GPGGA,062356.40,3015.6993053,N,12007.0310126,E,4,25,0.5,34.9835,M,7.094,M,0.5,0004*79
14:23:56.7 $GPGGA,062356.60,3015.6993042,N,12007.0310127,E,4,25,0.5,34.9872,M,7.094,M,0.6,0004*7A
14:23:56.7 $GPGGA,062356.60,3015.6993042,N,12007.0310127,E,4,25,0.5,34.9872,M,7.094,M,0.7,0004*7B
14:23:56.7 $GPGGA,062356.80,3015.6993052,N,12007.0310127,E,4,25,0.5,34.9827,M,7.094,M,0.8,0004*7B
14:23:56.7 $GPGGA,062356.80,3015.6993052,N,12007.0310127,E,4,25,0.5,34.9827,M,7.094,M,0.9,0004*7A
14:23:57.8 $GPGGA,062357.00,3015.6993043,N,12007.0310119,E,4,25,0.5,34.9895,M,7.094,M,1.0,0004*7F
14:23:57.8 $GPGGA,062357.00,3015.6993043,N,12007.0310119,E,4,25,0.5,34.9895,M,7.094,M,1.1,0004*7E
14:23:57.8 $GPGGA,062357.20,3015.6993067,N,12007.0310139,E,4,25,0.5,34.9662,M,7.094,M,0.2,0004*7C
14:23:57.8 $GPGGA,062357.20,3015.6993067,N,12007.0310139,E,4,25,0.5,34.9662,M,7.094,M,0.3,0004*7D
14:23:57.8 $GPGGA,062357.40,3015.6993058,N,12007.0310135,E,4,25,0.5,34.9831,M,7.094,M,0.4,0004*74
14:23:57.8 $GPGGA,062357.40,3015.6993058,N,12007.0310135,E,4,25,0.5,34.9831,M,7.094,M,0.5,0004*75
14:23:57.8 $GPGGA,062357.60,3015.6993058,N,12007.0310130,E,4,25,0.5,34.9814,M,7.094,M,0.6,0004*76
14:23:57.8 $GPGGA,062357.60,3015.6993058,N,12007.0310130,E,4,25,0.5,34.9814,M,7.094,M,0.7,0004*77
14:23:58.8 $GPGGA,062357.80,3015.6993052,N,12007.0310129,E,4,25,0.5,34.9858,M,7.094,M,0.8,0004*7C
14:23:58.8 $GPGGA,062357.80,3015.6993052,N,12007.0310129,E,4,25,0.5,34.9858,M,7.094,M,0.9,0004*7D
14:23:58.8 $GPGGA,062358.00,3015.6993044,N,12007.0310121,E,4,25,0.5,34.9696,M,7.094,M,1.0,0004*71
14:23:58.8 $GPGGA,062358.00,3015.6993044,N,12007.0310121,E,4,25,0.5,34.9696,M,7.094,M,0.1,0004*71
14:23:58.8 $GPGGA,062358.20,3015.6993058,N,12007.0310134,E,4,25,0.5,34.9671,M,7.094,M,0.2,0004*70
14:23:58.8 $GPGGA,062358.20,3015.6993058,N,12007.0310134,E,4,25,0.5,34.9671,M,7.094,M,0.3,0004*71
14:23:58.8 $GPGGA,062358.40,3015.6993047,N,12007.0310123,E,4,25,0.5,34.9703,M,7.094,M,0.4,0004*7C
14:23:58.8 $GPGGA,062358.40,3015.6993047,N,12007.0310123,E,4,25,0.5,34.9703,M,7.094,M,0.5,0004*7D
14:23:58.8 $GPGGA,062358.60,3015.6993059,N,12007.0310128,E,4,25,0.5,34.9601,M,7.094,M,0.6,0004*7B
14:23:58.8 $GPGGA,062358.60,3015.6993059,N,12007.0310128,E,4,25,0.5,34.9601,M,7.094,M,0.7,0004*7A
14:23:59.1 $GPGGA,062358.80,3015.6993043,N,12007.0310116,E,4,25,0.5,34.9666,M,7.094,M,0.8,0004*7C
14:23:59.1 $GPGGA,062358.80,3015.6993043,N,12007.0310116,E,4,25,0.5,34.9666,M,7.094,M,0.9,0004*7D
14:23:59.1 $GPGGA,062359.00,3015.6993049,N,12007.0310105,E,4,25,0.5,34.9631,M,7.094,M,1.0,0004*76
14:23:59.1 $GPGGA,062359.00,3015.6993049,N,12007.0310105,E,4,25,0.5,34.9631,M,7.094,M,0.1,0004*76
14:23:59.1 $GPGGA,062359.20,3015.6993049,N,12007.0310122,E,4,25,0.5,34.9644,M,7.094,M,0.2,0004*70
14:23:59.1 $GPGGA,062359.20,3015.6993049,N,12007.0310122,E,4,25,0.5,34.9644,M,7.094,M,0.3,0004*71
14:23:59.1 $GPGGA,062359.40,3015.6993047,N,12007.0310114,E,4,25,0.5,34.9639,M,7.094,M,0.4,0004*71
14:23:59.1 $GPGGA,062359.40,3015.6993047,N,12007.0310114,E,4,25,0.5,34.9639,M,7.094,M,0.5,0004*70
14:24:0.1 $GPGGA,062359.60,3015.6993039,N,12007.0310109,E,4,25,0.5,34.9690,M,7.094,M,0.6,0004*77
14:24:0.1 $GPGGA,062359.60,3015.6993039,N,12007.0310109,E,4,25,0.5,34.9690,M,7.094,M,0.7,0004*76
14:24:0.1 $GPGGA,062359.80,3015.6993034,N,12007.0310111,E,4,25,0.5,34.9693,M,7.094,M,0.8,0004*70
14:24:0.1 $GPGGA,062359.80,3015.6993034,N,12007.0310111,E,4,25,0.5,34.9693,M,7.094,M,0.9,0004*71
14:24:0.1 $GPGGA,062400.00,3015.6993032,N,12007.0310101,E,4,25,0.5,34.9734,M,7.094,M,1.0,0004*71
14:24:0.1 $GPGGA,062400.00,3015.6993032,N,12007.0310101,E,4,25,0.5,34.9734,M,7.094,M,1.1,0004*70
14:24:0.1 $GPGGA,062400.20,3015.6993049,N,12007.0310120,E,4,25,0.5,34.9740,M,7.094,M,0.2,0004*7C
14:24:0.1 $GPGGA,062400.20,3015.6993049,N,12007.0310120,E,4,25,0.5,34.9740,M,7.094,M,0.3,0004*7D
14:24:0.1 $GPGGA,062400.40,3015.6993042,N,12007.0310111,E,4,25,0.5,34.9708,M,7.094,M,0.4,0004*79
14:24:0.1 $GPGGA,062400.40,3015.6993042,N,12007.0310111,E,4,25,0.5,34.9708,M,7.094,M,0.5,0004*78
14:24:1.2 $GPGGA,062400.60,3015.6993046,N,12007.0310111,E,4,25,0.5,34.9719,M,7.094,M,0.6,0004*7D
14:24:1.2 $GPGGA,062400.60,3015.6993046,N,12007.0310111,E,4,25,0.5,34.9719,M,7.094,M,0.7,0004*7C
14:24:1.2 $GPGGA,062400.80,3015.6993039,N,12007.0310104,E,4,25,0.5,34.9942,M,7.094,M,0.8,0004*71
14:24:1.2 $GPGGA,062400.80,3015.6993039,N,12007.0310104,E,4,25,0.5,34.9942,M,7.094,M,0.9,0004*70
14:24:1.2 $GPGGA,062401.00,3015.6993036,N,12007.0310108,E,4,25,0.5,35.0003,M,7.094,M,1.0,0004*76
14:24:1.2 $GPGGA,062401.00,3015.6993036,N,12007.0310108,E,4,25,0.5,35.0003,M,7.094,M,1.1,0004*77
14:24:1.2 $GPGGA,062401.20,3015.6993058,N,12007.0310129,E,4,25,0.5,34.9931,M,7.094,M,0.2,0004*7C
14:24:1.2 $GPGGA,062401.20,3015.6993058,N,12007.0310129,E,4,25,0.5,34.9931,M,7.094,M,0.3,0004*7D
14:24:2.3 $GPGGA,062401.40,3015.6993052,N,12007.0310129,E,4,25,0.5,34.9868,M,7.094,M,0.4,0004*7B
14:24:2.3 $GPGGA,062401.40,3015.6993052,N,12007.0310129,E,4,25,0.5,34.9868,M,7.094,M,0.5,0004*7A
14:24:2.3 $GPGGA,062401.60,3015.6993059,N,12007.0310129,E,4,25,0.5,35.0016,M,7.094,M,0.6,0004*79
14:24:2.3 $GPGGA,062401.60,3015.6993059,N,12007.0310129,E,4,25,0.5,35.0016,M,7.094,M,0.7,0004*78
14:24:2.3 $GPGGA,062401.80,3015.6993053,N,12007.0310126,E,4,25,0.5,35.0056,M,7.094,M,0.8,0004*78
14:24:2.3 $GPGGA,062401.80,3015.6993053,N,12007.0310126,E,4,25,0.5,35.0056,M,7.094,M,0.9,0004*79
14:24:2.3 $GPGGA,062402.00,3015.6993050,N,12007.0310125,E,4,25,0.5,35.0052,M,7.094,M,1.0,0004*7E
14:24:2.3 $GPGGA,062402.00,3015.6993050,N,12007.0310125,E,4,25,0.5,35.0052,M,7.094,M,1.1,0004*7F
14:24:2.3 $GPGGA,062402.20,3015.6993056,N,12007.0310143,E,4,25,0.5,34.9986,M,7.094,M,0.2,0004*71
14:24:2.3 $GPGGA,062402.20,3015.6993056,N,12007.0310143,E,4,25,0.5,34.9986,M,7.094,M,0.3,0004*70
14:24:3.3 $GPGGA,062402.40,3015.6993058,N,12007.0310142,E,4,25,0.5,34.9928,M,7.094,M,0.4,0004*7A
14:24:3.3 $GPGGA,062402.40,3015.6993058,N,12007.0310142,E,4,25,0.5,34.9928,M,7.094,M,0.5,0004*7B
14:24:3.3 $GPGGA,062402.60,3015.6993061,N,12007.0310145,E,4,25,0.5,34.9927,M,7.094,M,0.6,0004*78
14:24:3.3 $GPGGA,062402.60,3015.6993061,N,12007.0310145,E,4,25,0.5,34.9927,M,7.094,M,0.7,0004*79
14:24:3.3 $GPGGA,062402.80,3015.6993050,N,12007.0310137,E,4,25,0.5,34.9949,M,7.094,M,0.8,0004*77
14:24:3.3 $GPGGA,062402.80,3015.6993050,N,12007.0310137,E,4,25,0.5,34.9949,M,7.094,M,0.9,0004*76
14:24:3.3 $GPGGA,062403.00,3015.6993054,N,12007.0310133,E,4,25,0.5,34.9944,M,7.094,M,1.0,0004*7A
14:24:3.3 $GPGGA,062403.00,3015.6993054,N,12007.0310133,E,4,25,0.5,34.9944,M,7.094,M,1.1,0004*7B
14:24:4.4 $GPGGA,062403.20,3015.6993048,N,12007.0310142,E,4,25,0.5,35.0012,M,7.094,M,0.2,0004*72
14:24:4.4 $GPGGA,062403.20,3015.6993048,N,12007.0310142,E,4,25,0.5,35.0012,M,7.094,M,0.3,0004*73
14:24:4.4 $GPGGA,062403.40,3015.6993059,N,12007.0310139,E,4,25,0.5,34.9977,M,7.094,M,0.4,0004*7C
14:24:4.4 $GPGGA,062403.40,3015.6993059,N,12007.0310139,E,4,25,0.5,34.9977,M,7.094,M,0.5,0004*7D
14:24:4.4 $GPGGA,062403.60,3015.6993042,N,12007.0310127,E,4,25,0.5,35.0047,M,7.094,M,0.6,0004*7B
14:24:4.4 $GPGGA,062403.60,3015.6993042,N,12007.0310127,E,4,25,0.5,35.0047,M,7.094,M,0.7,0004*7A
14:24:4.4 $GPGGA,062403.80,3015.6993046,N,12007.0310134,E,4,25,0.5,35.0001,M,7.094,M,0.8,0004*7F
14:24:4.4 $GPGGA,062403.80,3015.6993046,N,12007.0310134,E,4,25,0.5,35.0001,M,7.094,M,0.9,0004*7E
14:24:4.4 $GPGGA,062404.00,3015.6993050,N,12007.0310134,E,4,25,0.5,35.0003,M,7.094,M,1.0,0004*7C
14:24:4.4 $GPGGA,062404.00,3015.6993050,N,12007.0310134,E,4,25,0.5,35.0003,M,7.094,M,1.1,0004*7D
14:24:5.5 $GPGGA,062404.20,3015.6993058,N,12007.0310146,E,4,25,0.5,35.0007,M,7.094,M,0.2,0004*74
14:24:5.5 $GPGGA,062404.20,3015.6993058,N,12007.0310146,E,4,25,0.5,35.0007,M,7.094,M,0.3,0004*75
14:24:5.5 $GPGGA,062404.40,3015.6993059,N,12007.0310142,E,4,25,0.5,34.9988,M,7.094,M,0.4,0004*77
14:24:5.5 $GPGGA,062404.40,3015.6993059,N,12007.0310142,E,4,25,0.5,34.9988,M,7.094,M,0.5,0004*76
14:24:5.5 $GPGGA,062404.60,3015.6993047,N,12007.0310133,E,4,25,0.5,35.0046,M,7.094,M,0.6,0004*7D
14:24:5.5 $GPGGA,062404.60,3015.6993047,N,12007.0310133,E,4,25,0.5,35.0046,M,7.094,M,0.7,0004*7C
14:24:5.5 $GPGGA,062404.80,3015.6993036,N,12007.0310125,E,4,25,0.5,35.0087,M,7.094,M,0.8,0004*71
14:24:5.5 $GPGGA,062404.80,3015.6993036,N,12007.0310125,E,4,25,0.5,35.0087,M,7.094,M,0.9,0004*70
14:24:5.5 $GPGGA,062405.00,3015.6993038,N,12007.0310123,E,4,25,0.5,35.0056,M,7.094,M,1.0,0004*75
14:24:5.5 $GPGGA,062405.00,3015.6993038,N,12007.0310123,E,4,25,0.5,35.0056,M,7.094,M,1.1,0004*74
14:24:5.5 $GPGGA,062405.20,3015.6993047,N,12007.0310138,E,4,25,0.5,35.0149,M,7.094,M,0.2,0004*79
14:24:5.5 $GPGGA,062405.20,3015.6993047,N,12007.0310138,E,4,25,0.5,35.0149,M,7.094,M,0.3,0004*78
14:24:5.5 $GPGGA,062405.40,3015.6993065,N,12007.0310138,E,4,25,0.5,35.0011,M,7.094,M,0.4,0004*75
14:24:5.5 $GPGGA,062405.40,3015.6993065,N,12007.0310138,E,4,25,0.5,35.0011,M,7.094,M,0.5,0004*74
14:24:5.5 $GPGGA,062405.60,3015.6993020,N,12007.0310111,E,4,25,0.5,35.0137,M,7.094,M,0.6,0004*7A
14:24:5.5 $GPGGA,062405.60,3015.6993020,N,12007.0310111,E,4,25,0.5,35.0137,M,7.094,M,0.7,0004*7B
14:24:5.5 $GPGGA,062405.80,3015.6993024,N,12007.0310129,E,4,25,0.5,35.0005,M,7.094,M,0.8,0004*75
14:24:5.5 $GPGGA,062405.80,3015.6993024,N,12007.0310129,E,4,25,0.5,35.0005,M,7.094,M,0.9,0004*74
14:24:6.6 $GPGGA,062406.00,3015.6993087,N,12007.0310162,E,4,25,0.5,34.9924,M,7.094,M,1.0,0004*73
14:24:6.6 $GPGGA,062406.00,3015.6993087,N,12007.0310162,E,4,25,0.5,34.9924,M,7.094,M,0.1,0004*73
14:24:6.6 $GPGGA,062406.20,3015.6993091,N,12007.0310152,E,4,25,0.5,34.9928,M,7.094,M,0.2,0004*7A
14:24:6.6 $GPGGA,062406.20,3015.6993091,N,12007.0310152,E,4,25,0.5,34.9928,M,7.094,M,0.3,0004*7B
14:24:6.6 $GPGGA,062406.40,3015.6993053,N,12007.0310129,E,4,25,0.5,35.0082,M,7.094,M,0.4,0004*79
14:24:6.6 $GPGGA,062406.40,3015.6993053,N,12007.0310129,E,4,25,0.5,35.0082,M,7.094,M,0.5,0004*78
14:24:6.6 $GPGGA,062406.60,3015.6993054,N,12007.0310128,E,4,25,0.5,35.0074,M,7.094,M,0.6,0004*76
14:24:6.6 $GPGGA,062406.60,3015.6993054,N,12007.0310128,E,4,25,0.5,35.0074,M,7.094,M,0.7,0004*77
14:24:7.7 $GPGGA,062406.80,3015.6993053,N,12007.0310152,E,4,25,0.5,35.0303,M,7.094,M,0.8,0004*7F
14:24:7.7 $GPGGA,062406.80,3015.6993053,N,12007.0310152,E,4,25,0.5,35.0303,M,7.094,M,0.9,0004*7E
14:24:7.7 $GPGGA,062407.00,3015.6993057,N,12007.0310128,E,4,25,0.5,34.9975,M,7.094,M,1.0,0004*75
14:24:7.7 $GPGGA,062407.00,3015.6993057,N,12007.0310128,E,4,25,0.5,34.9975,M,7.094,M,1.1,0004*74
14:24:7.7 $GPGGA,062407.20,3015.6993043,N,12007.0310132,E,4,25,0.5,35.0179,M,7.094,M,0.2,0004*76
14:24:7.7 $GPGGA,062407.20,3015.6993043,N,12007.0310132,E,4,25,0.5,35.0179,M,7.094,M,0.3,0004*77
14:24:7.7 $GPGGA,062407.40,3015.6993032,N,12007.0310122,E,4,25,0.5,35.0223,M,7.094,M,0.4,0004*7D
14:24:7.7 $GPGGA,062407.40,3015.6993032,N,12007.0310122,E,4,25,0.5,35.0223,M,7.094,M,0.5,0004*7C
14:24:7.7 $GPGGA,062407.60,3015.6993045,N,12007.0310136,E,4,24,0.5,35.0070,M,7.094,M,0.6,0004*7D
14:24:7.7 $GPGGA,062407.60,3015.6993045,N,12007.0310136,E,4,24,0.5,35.0070,M,7.094,M,0.7,0004*7C
14:24:8.9 $GPGGA,062407.80,3015.6993039,N,12007.0310104,E,4,24,0.5,34.9919,M,7.094,M,0.8,0004*79
14:24:8.9 $GPGGA,062407.80,3015.6993039,N,12007.0310104,E,4,24,0.5,34.9919,M,7.094,M,0.9,0004*78
14:24:8.9 $GPGGA,062408.00,3015.6993024,N,12007.0310115,E,4,25,0.5,34.9987,M,7.094,M,1.0,0004*7D
14:24:8.9 $GPGGA,062408.00,3015.6993024,N,12007.0310115,E,4,25,0.5,34.9987,M,7.094,M,0.1,0004*7D
14:24:8.9 $GPGGA,062408.20,3015.6993016,N,12007.0310123,E,4,25,0.5,34.9919,M,7.094,M,0.2,0004*7F
14:24:8.9 $GPGGA,062408.20,3015.6993016,N,12007.0310123,E,4,25,0.5,34.9919,M,7.094,M,0.3,0004*7E
14:24:8.9 $GPGGA,062408.40,3015.6993022,N,12007.0310120,E,4,25,0.5,34.9880,M,7.094,M,0.4,0004*7A
14:24:8.9 $GPGGA,062408.40,3015.6993022,N,12007.0310120,E,4,25,0.5,34.9880,M,7.094,M,0.5,0004*7B
14:24:9.9 $GPGGA,062408.60,3015.6993015,N,12007.0310114,E,4,25,0.5,34.9961,M,7.094,M,0.6,0004*77
14:24:9.9 $GPGGA,062408.60,3015.6993015,N,12007.0310114,E,4,25,0.5,34.9961,M,7.094,M,0.7,0004*76
14:24:9.9 $GPGGA,062408.80,3015.6993019,N,12007.0310110,E,4,25,0.5,34.9955,M,7.094,M,0.8,0004*78
14:24:9.9 $GPGGA,062408.80,3015.6993019,N,12007.0310110,E,4,25,0.5,34.9955,M,7.094,M,0.9,0004*79
14:24:9.9 $GPGGA,062409.00,3015.6993017,N,12007.0310112,E,4,25,0.5,34.9966,M,7.094,M,1.0,0004*74
14:24:9.9 $GPGGA,062409.00,3015.6993017,N,12007.0310112,E,4,25,0.5,34.9966,M,7.094,M,1.1,0004*75
14:24:9.9 $GPGGA,062409.20,3015.6993006,N,12007.0310110,E,4,25,0.5,34.9952,M,7.094,M,0.2,0004*70
14:24:9.9 $GPGGA,062409.20,3015.6993006,N,12007.0310110,E,4,25,0.5,34.9952,M,7.094,M,0.3,0004*71
14:24:9.9 $GPGGA,062409.40,3015.6993017,N,12007.0310101,E,4,25,0.5,34.9970,M,7.094,M,0.4,0004*70
14:24:9.9 $GPGGA,062409.40,3015.6993017,N,12007.0310101,E,4,25,0.5,34.9970,M,7.094,M,0.5,0004*71
14:24:10.0 $GPGGA,062409.60,3015.6993018,N,12007.0310098,E,4,25,0.5,34.9935,M,7.094,M,0.6,0004*7F
14:24:10.0 $GPGGA,062409.60,3015.6993018,N,12007.0310098,E,4,25,0.5,34.9935,M,7.094,M,0.7,0004*7E
14:24:10.0 $GPGGA,062409.80,3015.6993023,N,12007.0310097,E,4,25,0.5,34.9952,M,7.094,M,0.8,0004*79
14:24:10.0 $GPGGA,062409.80,3015.6993023,N,12007.0310097,E,4,25,0.5,34.9952,M,7.094,M,0.9,0004*78
14:24:10.0 $GPGGA,062410.00,3015.6993025,N,12007.0310096,E,4,25,0.5,34.9893,M,7.094,M,1.0,0004*7B
14:24:10.0 $GPGGA,062410.00,3015.6993025,N,12007.0310096,E,4,25,0.5,34.9893,M,7.094,M,0.1,0004*7B
14:24:10.0 $GPGGA,062410.20,3015.6993021,N,12007.0310100,E,4,25,0.5,34.9958,M,7.094,M,0.2,0004*76
14:24:10.0 $GPGGA,062410.20,3015.6993021,N,12007.0310100,E,4,25,0.5,34.9958,M,7.094,M,0.3,0004*77
14:24:11.0 $GPGGA,062410.40,3015.6993018,N,12007.0310097,E,4,25,0.5,34.9985,M,7.094,M,0.4,0004*73
14:24:11.0 $GPGGA,062410.40,3015.6993018,N,12007.0310097,E,4,25,0.5,34.9985,M,7.094,M,0.5,0004*72
14:24:11.0 $GPGGA,062410.60,3015.6993014,N,12007.0310093,E,4,25,0.5,35.0000,M,7.094,M,0.6,0004*77
14:24:11.0 $GPGGA,062410.60,3015.6993014,N,12007.0310093,E,4,25,0.5,35.0000,M,7.094,M,0.7,0004*76
14:24:11.0 $GPGGA,062410.80,3015.6993014,N,12007.0310097,E,4,25,0.5,34.9977,M,7.094,M,0.8,0004*72
14:24:11.0 $GPGGA,062410.80,3015.6993014,N,12007.0310097,E,4,25,0.5,34.9977,M,7.094,M,0.9,0004*73
14:24:11.0 $GPGGA,062411.00,3015.6993024,N,12007.0310094,E,4,25,0.5,34.9888,M,7.094,M,1.0,0004*73
14:24:11.0 $GPGGA,062411.00,3015.6993024,N,12007.0310094,E,4,25,0.5,34.9888,M,7.094,M,0.1,0004*73
14:24:11.0 $GPGGA,062411.20,3015.6993043,N,12007.0310066,E,4,25,0.5,34.9995,M,7.094,M,0.2,0004*73
14:24:11.0 $GPGGA,062411.20,3015.6993043,N,12007.0310066,E,4,25,0.5,34.9995,M,7.094,M,0.3,0004*72
14:24:12.1 $GPGGA,062411.40,3015.6993071,N,12007.0310045,E,4,25,0.5,34.9992,M,7.094,M,0.4,0004*74
14:24:12.1 $GPGGA,062411.40,3015.6993071,N,12007.0310045,E,4,25,0.5,34.9992,M,7.094,M,0.5,0004*75
14:24:12.1 $GPGGA,062411.60,3015.6993073,N,12007.0310051,E,4,25,0.5,35.0012,M,7.094,M,0.6,0004*7A
14:24:12.1 $GPGGA,062411.60,3015.6993073,N,12007.0310051,E,4,25,0.5,35.0012,M,7.094,M,0.7,0004*7B
14:24:12.1 $GPGGA,062411.80,3015.6993056,N,12007.0310036,E,4,25,0.5,35.0050,M,7.094,M,0.8,0004*7A
14:24:12.1 $GPGGA,062411.80,3015.6993056,N,12007.0310036,E,4,25,0.5,35.0050,M,7.094,M,0.9,0004*7B
14:24:12.1 $GPGGA,062412.00,3015.6993062,N,12007.0310033,E,4,25,0.5,35.0088,M,7.094,M,1.0,0004*7F
14:24:12.1 $GPGGA,062412.00,3015.6993062,N,12007.0310033,E,4,25,0.5,35.0088,M,7.094,M,1.1,0004*7E
14:24:13.3 $GPGGA,062412.20,3015.6993044,N,12007.0310036,E,4,25,0.5,35.0083,M,7.094,M,0.2,0004*74
14:24:13.3 $GPGGA,062412.20,3015.6993044,N,12007.0310036,E,4,25,0.5,35.0083,M,7.094,M,0.3,0004*75
14:24:13.3 $GPGGA,062412.40,3015.6993056,N,12007.0309953,E,4,25,0.5,35.0167,M,7.094,M,0.4,0004*7E
14:24:13.3 $GPGGA,062412.40,3015.6993056,N,12007.0309953,E,4,25,0.5,35.0167,M,7.094,M,0.5,0004*7F
14:24:13.3 $GPGGA,062412.60,3015.6993052,N,12007.0309884,E,4,25,0.5,35.0065,M,7.094,M,0.6,0004*72
14:24:13.3 $GPGGA,062412.60,3015.6993052,N,12007.0309884,E,4,25,0.5,35.0065,M,7.094,M,0.7,0004*73
14:24:13.3 $GPGGA,062412.80,3015.6993009,N,12007.0309823,E,4,24,0.5,35.0071,M,7.094,M,0.8,0004*75
14:24:13.3 $GPGGA,062412.80,3015.6993009,N,12007.0309823,E,4,24,0.5,35.0071,M,7.094,M,0.9,0004*74
14:24:13.3 $GPGGA,062413.00,3015.6993043,N,12007.0309832,E,4,24,0.5,35.0085,M,7.094,M,1.0,0004*70
14:24:13.3 $GPGGA,062413.00,3015.6993043,N,12007.0309832,E,4,24,0.5,35.0085,M,7.094,M,0.1,0004*70
14:24:14.3 $GPGGA,062413.20,3015.6993143,N,12007.0309688,E,4,24,0.5,35.0127,M,7.094,M,0.2,0004*76
14:24:14.3 $GPGGA,062413.20,3015.6993143,N,12007.0309688,E,4,24,0.5,35.0127,M,7.094,M,0.3,0004*77
14:24:14.3 $GPGGA,062413.40,3015.6993329,N,12007.0309736,E,4,24,0.5,35.0248,M,7.094,M,0.4,0004*76
14:24:14.3 $GPGGA,062413.40,3015.6993329,N,12007.0309736,E,4,24,0.5,35.0248,M,7.094,M,0.5,0004*77
14:24:14.3 $GPGGA,062413.60,3015.6993547,N,12007.0309711,E,4,24,0.5,35.0255,M,7.094,M,0.6,0004*71
14:24:14.3 $GPGGA,062413.60,3015.6993547,N,12007.0309711,E,4,24,0.5,35.0255,M,7.094,M,0.7,0004*70
14:24:14.3 $GPGGA,062413.80,3015.6993748,N,12007.0309580,E,4,24,0.5,35.0332,M,7.094,M,0.8,0004*76
14:24:14.3 $GPGGA,062413.80,3015.6993748,N,12007.0309580,E,4,24,0.5,35.0332,M,7.094,M,0.9,0004*77
14:24:14.3 $GPGGA,062414.00,3015.6994082,N,12007.0309803,E,4,24,0.5,35.0110,M,7.094,M,1.0,0004*72
14:24:14.4 $GPGGA,062414.00,3015.6994082,N,12007.0309803,E,4,24,0.5,35.0110,M,7.094,M,0.1,0004*72
14:24:14.4 $GPGGA,062414.20,3015.6994314,N,12007.0309615,E,4,24,0.5,34.9862,M,7.094,M,0.2,0004*72
14:24:14.4 $GPGGA,062414.20,3015.6994314,N,12007.0309615,E,4,24,0.5,34.9862,M,7.094,M,0.3,0004*73
14:24:14.4 $GPGGA,062414.40,3015.6994501,N,12007.0309500,E,4,23,0.5,34.9725,M,7.094,M,0.4,0004*7C
14:24:14.4 $GPGGA,062414.40,3015.6994501,N,12007.0309500,E,4,23,0.5,34.9725,M,7.094,M,0.5,0004*7D
14:24:14.4 $GPGGA,062414.60,3015.6994585,N,12007.0309462,E,4,22,0.5,34.9656,M,7.094,M,0.6,0004*71
14:24:14.4 $GPGGA,062414.60,3015.6994585,N,12007.0309462,E,4,22,0.5,34.9656,M,7.094,M,0.7,0004*70
14:24:14.4 $GPGGA,062414.80,3015.6994568,N,12007.0309484,E,4,21,0.5,34.9610,M,7.094,M,0.8,0004*7B
14:24:14.4 $GPGGA,062414.80,3015.6994568,N,12007.0309484,E,4,21,0.5,34.9610,M,7.094,M,0.9,0004*7A
14:24:15.5 $GPGGA,062415.00,3015.6994534,N,12007.0309507,E,4,21,0.5,34.9687,M,7.094,M,1.0,0004*76
14:24:15.5 $GPGGA,062415.00,3015.6994534,N,12007.0309507,E,4,21,0.5,34.9687,M,7.094,M,0.1,0004*76
14:24:15.5 $GPGGA,062415.20,3015.6994359,N,12007.0309617,E,4,21,0.5,35.0142,M,7.094,M,0.2,0004*7E
14:24:15.5 $GPGGA,062415.20,3015.6994359,N,12007.0309617,E,4,21,0.5,35.0142,M,7.094,M,0.3,0004*7F
14:24:15.5 $GPGGA,062415.40,3015.6994292,N,12007.0309538,E,4,21,0.5,35.1093,M,7.094,M,0.4,0004*7A
14:24:15.5 $GPGGA,062415.40,3015.6994292,N,12007.0309538,E,4,21,0.5,35.1093,M,7.094,M,0.5,0004*7B
14:24:15.5 $GPGGA,062415.60,3015.6994232,N,12007.0309699,E,4,22,0.6,35.3102,M,7.094,M,0.6,0004*73
14:24:15.5 $GPGGA,062415.60,3015.6994232,N,12007.0309699,E,4,22,0.6,35.3102,M,7.094,M,0.7,0004*72
14:24:15.5 $GPGGA,062415.80,3015.6994591,N,12007.0309419,E,4,22,0.6,35.4236,M,7.094,M,0.8,0004*74
14:24:16.5 $GPGGA,062415.80,3015.6994591,N,12007.0309419,E,4,22,0.6,35.4236,M,7.094,M,0.9,0004*75
14:24:16.5 $GPGGA,062416.00,3015.6994782,N,12007.0308841,E,4,22,0.6,35.4752,M,7.094,M,1.0,0004*71
14:24:16.5 $GPGGA,062416.00,3015.6994782,N,12007.0308841,E,4,22,0.6,35.4752,M,7.094,M,1.1,0004*70
14:24:16.5 $GPGGA,062416.20,3015.6995156,N,12007.0308567,E,4,21,0.5,35.6444,M,7.094,M,0.2,0004*71
14:24:16.5 $GPGGA,062416.20,3015.6995156,N,12007.0308567,E,4,21,0.5,35.6444,M,7.094,M,0.3,0004*70
14:24:16.5 $GPGGA,062416.40,3015.6995387,N,12007.0308269,E,4,22,0.5,35.7698,M,7.094,M,0.4,0004*77
14:24:16.5 $GPGGA,062416.40,3015.6995387,N,12007.0308269,E,4,22,0.5,35.7698,M,7.094,M,0.5,0004*76
14:24:16.5 $GPGGA,062416.60,3015.6995936,N,12007.0308242,E,4,22,0.5,35.8358,M,7.094,M,0.6,0004*78
14:24:16.5 $GPGGA,062416.60,3015.6995936,N,12007.0308242,E,4,22,0.5,35.8358,M,7.094,M,0.7,0004*79
14:24:17.7 $GPGGA,062416.80,3015.6996588,N,12007.0308238,E,4,22,0.6,35.8280,M,7.094,M,0.8,0004*78
14:24:17.7 $GPGGA,062416.80,3015.6996588,N,12007.0308238,E,4,22,0.6,35.8280,M,7.094,M,0.9,0004*79
14:24:17.7 $GPGGA,062417.00,3015.6997223,N,12007.0308359,E,4,22,0.6,35.8380,M,7.094,M,1.0,0004*78
14:24:17.7 $GPGGA,062417.00,3015.6997223,N,12007.0308359,E,4,22,0.6,35.8380,M,7.094,M,1.1,0004*79
14:24:17.7 $GPGGA,062417.20,3015.6997707,N,12007.0308656,E,4,22,0.6,35.8515,M,7.094,M,0.2,0004*7A
14:24:17.7 $GPGGA,062417.20,3015.6997707,N,12007.0308656,E,4,22,0.6,35.8515,M,7.094,M,0.3,0004*7B
14:24:17.7 $GPGGA,062417.40,3015.6998270,N,12007.0309187,E,4,22,0.6,35.8360,M,7.094,M,0.4,0004*7E
14:24:17.7 $GPGGA,062417.40,3015.6998270,N,12007.0309187,E,4,22,0.6,35.8360,M,7.094,M,0.5,0004*7F
14:24:17.7 $GPGGA,062417.60,3015.6998917,N,12007.0309815,E,4,22,0.6,35.8652,M,7.094,M,0.6,0004*72
14:24:18.8 $GPGGA,062417.60,3015.6998917,N,12007.0309815,E,4,22,0.6,35.8652,M,7.094,M,0.7,0004*73
14:24:18.8 $GPGGA,062417.80,3015.6999215,N,12007.0310394,E,4,22,0.6,35.9104,M,7.094,M,0.8,0004*75
14:24:18.8 $GPGGA,062417.80,3015.6999215,N,12007.0310394,E,4,22,0.6,35.9104,M,7.094,M,0.9,0004*74
14:24:18.8 $GPGGA,062418.00,3015.6999219,N,12007.0310798,E,4,22,0.6,35.9239,M,7.094,M,1.0,0004*72
14:24:18.8 $GPGGA,062418.00,3015.6999219,N,12007.0310798,E,4,22,0.6,35.9239,M,7.094,M,0.1,0004*72
14:24:18.8 $GPGGA,062418.20,3015.6999093,N,12007.0311133,E,4,22,0.5,35.9249,M,7.094,M,0.2,0004*71
14:24:18.8 $GPGGA,062418.20,3015.6999093,N,12007.0311133,E,4,22,0.5,35.9249,M,7.094,M,0.3,0004*70
14:24:18.8 $GPGGA,062418.40,3015.6998798,N,12007.0311243,E,4,23,0.5,35.9138,M,7.094,M,0.4,0004*7C
14:24:18.8 $GPGGA,062418.40,3015.6998798,N,12007.0311243,E,4,23,0.5,35.9138,M,7.094,M,0.5,0004*7D
14:24:19.8 $GPGGA,062418.60,3015.6998444,N,12007.0311172,E,4,23,0.5,35.9086,M,7.094,M,0.6,0004*7B
14:24:19.8 $GPGGA,062418.60,3015.6998444,N,12007.0311172,E,4,23,0.5,35.9086,M,7.094,M,0.7,0004*7A
14:24:19.8 $GPGGA,062418.80,3015.6998185,N,12007.0311026,E,4,23,0.5,35.9333,M,7.094,M,0.8,0004*7E
14:24:19.8 $GPGGA,062418.80,3015.6998185,N,12007.0311026,E,4,23,0.5,35.9333,M,7.094,M,0.9,0004*7F
14:24:19.8 $GPGGA,062419.00,3015.6998084,N,12007.0310902,E,4,23,0.5,35.9113,M,7.094,M,1.0,0004*70
14:24:19.8 $GPGGA,062419.00,3015.6998084,N,12007.0310902,E,4,23,0.5,35.9113,M,7.094,M,0.1,0004*70
14:24:19.8 $GPGGA,062419.20,3015.6998063,N,12007.0310849,E,4,24,0.5,35.9137,M,7.094,M,0.2,0004*77
14:24:19.8 $GPGGA,062419.20,3015.6998063,N,12007.0310849,E,4,24,0.5,35.9137,M,7.094,M,0.3,0004*76
14:24:19.8 $GPGGA,062419.40,3015.6998099,N,12007.0310772,E,4,24,0.5,35.9232,M,7.094,M,0.4,0004*73
