14:30:46.1 $GPGGA,063019.80,3015.6978650,N,12007.0303229,E,5,17,0.7,39.7769,M,7.094,M,0.8,0004*78
14:30:46.1 $GPGGA,063019.80,3015.6978650,N,12007.0303229,E,5,17,0.7,39.7769,M,7.094,M,0.9,0004*79
14:30:46.1 $GPGGA,063020.00,3015.6978551,N,12007.0303343,E,5,17,0.7,39.7210,M,7.094,M,1.0,0004*77
14:30:46.1 $GPGGA,063020.00,3015.6978551,N,12007.0303343,E,5,17,0.7,39.7210,M,7.094,M,1.1,0004*76
14:30:46.1 $GPGGA,063020.20,3015.6978546,N,12007.0303468,E,5,17,0.7,39.7087,M,7.094,M,0.2,0004*72
14:30:46.1 $GPGGA,063020.20,3015.6978546,N,12007.0303468,E,5,17,0.7,39.7087,M,7.094,M,0.3,0004*73
14:30:46.1 $GPGGA,063020.40,3015.6978567,N,12007.0303464,E$GPGGA,063045.80,3015.7002869,N,12007.0329801,E,5,19,0.6,39.1821,M,7.094,M,0.9,0004*73
14:30:46.1 $GPGGA,063046.00,3015.7002849,N,12007.0329800,E,5,19,0.6,39.1986,M,7.094,M,1.0,0004*7F
14:30:46.1 $GPGGA,063046.00,3015.7002849,N,12007.0329800,E,5,19,0.6,39.1986,M,7.094,M,0.1,0004*7F
14:30:46.1 $GPGGA,063046.20,3015.7002856,N,12007.0329829,E,5,19,0.6,39.2033,M,7.094,M,0.2,0004*7F
14:30:46.1 $GPGGA,063046.20,3015.7002856,N,12007.0329829,E,5,19,0.6,39.2033,M,7.094,M,0.3,0004*7E
14:30:47.2 3046.40,3015.7002829,N,12007.0329818,E,5,19,0.6,39.2199,M,7.094,M,0.4,0004*74
14:30:47.2 $GPGGA,063046.40,3015.7002829,N,12007.0329818,E,5,19,0.6,39.2199,M,7.094,M,0.5,0004*75
14:30:47.2 $GPGGA,063046.60,3015.7002817,N,12007.0329820,E,5,19,0.6,39.2276,M,7.094,M,0.6,0004*70
14:30:47.2 $GPGGA,063046.60,3015.7002817,N,12007.0329820,E,5,19,0.6,39.2276,M,7.094,M,0.7,0004*71
14:30:47.2 $GPGGA,063046.80,3015.7002818,N,12007.0329836,E,5,19,0.6,39.2341,M,7.094,M,0.8,0004*7D
14:30:47.2 $GPGGA,063046.80,3015.7002818,N,12007.0329836,E,5,19,0.6,39.2341,M,7.094,M,0.9,0004*7C
14:30:47.2 $GPGGA,063047.00,3015.7002815,N,12007.0329833,E,5,19,0.6,39.2357,M,7.094,M,1.0,0004*72
14:30:47.2 $GPGGA,063047.00,3015.7002815,N,12007.0329833,E,5,19,0.6,39.2357,M,7.094,M,1.1,0004*73
14:30:47.2 $GPGGA,063047.20,3015.7002775,N,12007.0329826,E,5,19,0.6,39.2554,M,7.094,M,0.2,0004*7B
14:30:47.2 $GPGGA,063047.20,3015.7002775,N,12007.0329826,E,5,19,0.6,39.2554,M,7.094,M,0.3,0004*7A
14:30:47.2 $GPGGA,063047.40,3015.7002757,N,12007.0329811,E,5,19,0.6,39.2670,M,7.094,M,0.4,0004*7A
14:30:48.2 M,7.094,M,0.5,0004*7B
14:30:48.2 $GPGGA,063047.60,3015.7002751,N,12007.0329820,E,5,19,0.6,39.2740,M,7.094,M,0.6,0004*7C
14:30:48.2 $GPGGA,063047.60,3015.7002751,N,12007.0329820,E,5,19,0.6,39.2740,M,7.094,M,0.7,0004*7D
14:30:48.2 $GPGGA,063047.80,3015.7002721,N,12007.0329830,E,5,19,0.6,39.2930,M,7.094,M,0.8,0004*73
14:30:48.2 $GPGGA,063047.80,3015.7002721,N,12007.0329830,E,5,19,0.6,39.2930,M,7.094,M,0.9,0004*72
14:30:48.2 $GPGGA,063048.00,3015.7002702,N,12007.0329805,E,5,19,0.6,39.2953,M,7.094,M,1.0,0004*7F
14:30:48.2 $GPGGA,063048.00,3015.7002702,N,12007.0329805,E,5,19,0.6,39.2953,M,7.094,M,0.1,0004*7F
14:30:48.2 $GPGGA,063048.20,3015.7002683,N,12007.0329796,E,5,19,0.6,39.2934,M,7.094,M,0.2,0004*72
14:30:48.2 $GPGGA,063048.20,3015.7002683,N,12007.0329796,E,5,19,0.6,39.2934,M,7.094,M,0.3,0004*73
14:30:48.2 $GPGGA,063048.40,3015.7002677,N,12007.0329800,E,5,19,0.6,39.3040,M,7.094,M,0.4,0004*72
14:30:48.2 $GPGGA,063048.40,3015.7002677,N,12007.0329800,E,5,19,0.6,39.3040,M,7.094,M,0.5,0004*73
14:30:49.3 $GPGGA,063048.60,3015.7002650,N,12007.0329793,E,5,19,0.6,39.3109,M,7.094,M,0.6,0004*7E
14:30:49.3 $GPGGA,063048.60,3015.7002650,N,12007.0329793,E,5,19,0.6,39.3109,M,7.094,M,0.7,0004*7F
14:30:49.3 $GPGGA,063048.80,3015.7002656,N,12007.0329778,E,5,19,0.6,39.3216,M,7.094,M,0.8,0004*70
14:30:49.3 $GPGGA,063048.80,3015.7002656,N,12007.0329778,E,5,19,0.6,39.3216,M,7.094,M,0.9,0004*71
14:30:49.3 $GPGGA,063049.00,3015.7002624,N,12007.0329775,E,5,19,0.6,39.3240,M,7.094,M,1.0,0004*7B
14:30:49.3 $GPGGA,063049.00,3015.7002624,N,12007.0329775,E,5,19,0.6,39.3240,M,7.094,M,1.1,0004*7A
14:30:49.3 $GPGGA,063049.20,3015.7002591,N,12007.0329767,E,5,19,0.6,39.3506,M,7.094,M,0.2,0004*71
14:30:49.3 $GPGGA,063049.20,3015.7002591,N,12007.0329767,E,5,19,0.6,39.3506,M,7.094,M,0.3,0004*70
14:30:49.3 $GPGGA,063049.40,3015.7002617,N,12007.0329775,E,5,19,0.6,39.3457,M,7.094,M,0.4,0004*7A
14:30:50.4 $GPGGA,063049.40,3015.7002617,N,12007.0329775,E,5,19,0.6,39.3457,M,7.094,M,0.5,0004*7B
14:30:50.4 $GPGGA,063049.60,3015.7002578,N,12007.0329771,E,5,19,0.6,39.3584,M,7.094,M,0.6,0004*7B
14:30:50.4 $GPGGA,063049.60,3015.7002578,N,12007.0329771,E,5,19,0.6,39.3584,M,7.094,M,0.7,0004*7A
14:30:50.4 $GPGGA,063049.80,3015.7002564,N,12007.0329767,E,5,19,0.6,39.3719,M,7.094,M,0.8,0004*77
14:30:50.4 $GPGGA,063049.80,3015.7002564,N,12007.0329767,E,5,19,0.6,39.3719,M,7.094,M,0.9,0004*76
14:30:50.4 $GPGGA,063050.00,3015.7002570,N,12007.0329777,E,5,19,0.6,39.3613,M,7.094,M,1.0,0004*71
14:30:50.4 $GPGGA,063050.00,3015.7002570,N,12007.0329777,E,5,19,0.6,39.3613,M,7.094,M,0.1,0004*71
14:30:50.4 $GPGGA,063050.20,3015.7002563,N,12007.0329790,E,5,19,0.6,39.3742,M,7.094,M,0.2,0004*7E
14:30:50.4 $GPGGA,063050.20,3015.7002563,N,12007.0329790,E,5,19,0.6,39.3742,M,7.094,M,0.3,0004*7F
14:30:51.5 $GPGGA,063050.40,3015.7002550,N,12007.0329774,E,5,19,0.6,39.3630,M,7.094,M,0.4,0004*70
14:30:51.5 $GPGGA,063050.40,3015.7002550,N,12007.0329774,E,5,19,0.6,39.3630,M,7.094,M,0.5,0004*71
14:30:51.5 $GPGGA,063050.60,3015.7002553,N,12007.0329767,E,5,19,0.6,39.3739,M,7.094,M,0.6,0004*79
14:30:51.5 $GPGGA,063050.60,3015.7002553,N,12007.0329767,E,5,19,0.6,39.3739,M,7.094,M,0.7,0004*78
14:30:51.5 $GPGGA,063050.80,3015.7002536,N,12007.0329763,E,5,19,0.6,39.3825,M,7.094,M,0.8,0004*7C
14:30:51.5 $GPGGA,063050.80,3015.7002536,N,12007.0329763,E,5,19,0.6,39.3825,M,7.094,M,0.9,0004*7D
14:30:51.5 $GPGGA,063051.00,3015.7002528,N,12007.0329773,E,5,19,0.6,39.4120,M,7.094,M,1.0,0004*79
14:30:51.5 $GPGGA,063051.00,3015.7002528,N,12007.0329773,E,5,19,0.6,39.4120,M,7.094,M,1.1,0004*78
14:30:51.5 $GPGGA,063051.20,3015.7002533,N,12007.0329750,E,5,19,0.6,39.3928,M,7.094,M,0.2,0004*74
14:30:52.5 $GPGGA,063051.20,3015.7002533,N,12007.0329750,E,5,19,0.6,39.3928,M,7.094,M,0.3,0004*75
14:30:52.5 $GPGGA,063051.40,3015.7002500,N,12007.0329754,E,5,19,0.6,39.4174,M,7.094,M,0.4,0004*76
14:30:52.5 $GPGGA,063051.40,3015.7002500,N,12007.0329754,E,5,19,0.6,39.4174,M,7.094,M,0.5,0004*77
14:30:52.5 $GPGGA,063051.60,3015.7002509,N,12007.0329761,E,5,19,0.6,39.4121,M,7.094,M,0.6,0004*79
14:30:52.5 $GPGGA,063051.60,3015.7002509,N,12007.0329761,E,5,19,0.6,39.4121,M,7.094,M,0.7,0004*78
14:30:52.5 $GPGGA,063051.80,3015.7002473,N,12007.0329724,E,5,19,0.6,39.4242,M,7.094,M,0.8,0004*72
14:30:52.5 $GPGGA,063051.80,3015.7002473,N,12007.0329724,E,5,19,0.6,39.4242,M,7.094,M,0.9,0004*73
14:30:52.5 $GPGGA,063052.00,3015.7002437,N,12007.0329709,E,5,19,0.6,39.4479,M,7.094,M,1.0,0004*71
14:30:52.5 $GPGGA,063052.00,3015.7002437,N,12007.0329709,E,5,19,0.6,39.4479,M,7.094,M,1.1,0004*70
14:30:53.6 $GPGGA,063052.20,3015.7002419,N,12007.0329702,E,5,19,0.6,39.4547,M,7.094,M,0.2,0004*7B
14:30:53.6 $GPGGA,063052.20,3015.7002419,N,12007.0329702,E,5,19,0.6,39.4547,M,7.094,M,0.3,0004*7A
14:30:53.6 $GPGGA,063052.40,3015.7002404,N,12007.0329688,E,5,19,0.6,39.4527,M,7.094,M,0.4,0004*72
14:30:53.6 $GPGGA,063052.40,3015.7002404,N,12007.0329688,E,5,19,0.6,39.4527,M,7.094,M,0.5,0004*73
14:30:53.6 $GPGGA,063052.60,3015.7002394,N,12007.0329681,E,5,19,0.6,39.4689,M,7.094,M,0.6,0004*72
14:30:53.6 $GPGGA,063052.60,3015.7002394,N,12007.0329681,E,5,19,0.6,39.4689,M,7.094,M,0.7,0004*73
14:30:53.6 $GPGGA,063052.80,3015.7002390,N,12007.0329663,E,5,19,0.6,39.4653,M,7.094,M,0.8,0004*7D
14:30:53.6 $GPGGA,063052.80,3015.7002390,N,12007.0329663,E,5,19,0.6,39.4653,M,7.094,M,0.9,0004*7C
14:30:53.6 $GPGGA,063053.00,3015.7002371,N,12007.0329666,E,5,19,0.6,39.4774,M,7.094,M,1.0,0004*73
14:30:54.6 $GPGGA,063053.00,3015.7002371,N,12007.0329666,E,5,19,0.6,39.4774,M,7.094,M,0.1,0004*73
14:30:54.6 $GPGGA,063053.20,3015.7002312,N,12007.0329635,E,5,19,0.6,39.4829,M,7.094,M,0.2,0004*76
14:30:54.6 $GPGGA,063053.20,3015.7002312,N,12007.0329635,E,5,19,0.6,39.4829,M,7.094,M,0.3,0004*77
14:30:54.6 $GPGGA,063053.40,3015.7002313,N,12007.0329631,E,5,19,0.6,39.4782,M,7.094,M,0.4,0004*7D
14:30:54.6 $GPGGA,063053.40,3015.7002313,N,12007.0329631,E,5,19,0.6,39.4782,M,7.094,M,0.5,0004*7C
14:30:54.6 $GPGGA,063053.60,3015.7002307,N,12007.0329612,E,5,19,0.6,39.4791,M,7.094,M,0.6,0004*7B
14:30:54.6 $GPGGA,063053.60,3015.7002307,N,12007.0329612,E,5,19,0.6,39.4791,M,7.094,M,0.7,0004*7A
14:30:54.6 $GPGGA,063053.80,3015.7002272,N,12007.0329586,E,5,19,0.6,39.4894,M,7.094,M,0.8,0004*7C
14:30:54.6 $GPGGA,063053.80,3015.7002272,N,12007.0329586,E,5,19,0.6,39.4894,M,7.094,M,0.9,0004*7D
14:30:54.7 $GPGGA,063054.00,3015.7002273,N,12007.0329559,E,5,19,0.6,39.4903,M,7.094,M,1.0,0004*76
14:30:54.7 $GPGGA,063054.00,3015.7002273,N,12007.0329559,E,5,19,0.6,39.4903,M,7.094,M,0.1,0004*76
14:30:54.7 $GPGGA,063054.20,3015.7002271,N,12007.0329574,E,5,19,0.6,39.4877,M,7.094,M,0.2,0004*78
14:30:54.7 $GPGGA,063054.20,3015.7002271,N,12007.0329574,E,5,19,0.6,39.4877,M,7.094,M,0.3,0004*79
14:30:54.7 $GPGGA,063054.40,3015.7002217,N,12007.0329537,E,5,19,0.6,39.5066,M,7.094,M,0.4,0004*76
14:30:54.7 $GPGGA,063054.40,3015.7002217,N,12007.0329537,E,5,19,0.6,39.5066,M,7.094,M,0.5,0004*77
14:30:54.7 $GPGGA,063054.60,3015.7002220,N,12007.0329521,E,5,19,0.6,39.4969,M,7.094,M,0.6,0004*72
14:30:54.7 $GPGGA,063054.60,3015.7002220,N,12007.0329521,E,5,19,0.6,39.4969,M,7.094,M,0.7,0004*73
14:30:54.7 $GPGGA,063054.80,3015.7002217,N,12007.0329497,E,5,19,0.6,39.4905,M,7.094,M,0.8,0004*70
14:30:55.9 $GPGGA,063054.80,3015.7002217,N,12007.0329497,E,5,19,0.6,39.4905,M,7.094,M,0.9,0004*71
14:30:55.9 $GPGGA,063055.00,3015.7002193,N,12007.0329484,E,5,19,0.6,39.5009,M,7.094,M,1.0,0004*79
14:30:55.9 $GPGGA,063055.00,3015.7002193,N,12007.0329484,E,5,19,0.6,39.5009,M,7.094,M,1.1,0004*78
14:30:55.9 $GPGGA,063055.20,3015.7002194,N,12007.0329471,E,5,19,0.6,39.4876,M,7.094,M,0.2,0004*74
14:30:55.9 $GPGGA,063055.20,3015.7002194,N,12007.0329471,E,5,19,0.6,39.4876,M,7.094,M,0.3,0004*75
14:30:55.9 $GPGGA,063055.40,3015.7002174,N,12007.0329454,E,5,19,0.6,39.4905,M,7.094,M,0.4,0004*78
14:30:55.9 $GPGGA,063055.40,3015.7002174,N,12007.0329454,E,5,19,0.6,39.4905,M,7.094,M,0.5,0004*79
14:30:55.9 $GPGGA,063055.60,3015.7002164,N,12007.0329423,E,5,19,0.6,39.4906,M,7.094,M,0.6,0004*7A
14:30:55.9 $GPGGA,063055.60,3015.7002164,N,12007.0329423,E,5,19,0.6,39.4906,M,7.094,M,0.7,0004*7B
14:30:56.9 $GPGGA,063055.80,3015.7002153,N,12007.0329420,E,5,19,0.6,39.4912,M,7.094,M,0.8,0004*78
14:30:56.9 $GPGGA,063055.80,3015.7002153,N,12007.0329420,E,5,19,0.6,39.4912,M,7.094,M,0.9,0004*79
14:30:56.9 $GPGGA,063056.00,3015.7002155,N,12007.0329414,E,5,19,0.6,39.4884,M,7.094,M,1.0,0004*75
14:30:56.9 $GPGGA,063056.00,3015.7002155,N,12007.0329414,E,5,19,0.6,39.4884,M,7.094,M,0.1,0004*75
14:30:56.9 $GPGGA,063056.20,3015.7002100,N,12007.0329388,E,5,19,0.6,39.5024,M,7.094,M,0.2,0004*75
14:30:56.9 $GPGGA,063056.20,3015.7002100,N,12007.0329388,E,5,19,0.6,39.5024,M,7.094,M,0.3,0004*74
14:30:56.9 $GPGGA,063056.40,3015.7002102,N,12007.0329347,E,5,19,0.6,39.4973,M,7.094,M,0.4,0004*7E
14:30:56.9 $GPGGA,063056.40,3015.7002102,N,12007.0329347,E,5,19,0.6,39.4973,M,7.094,M,0.5,0004*7F
14:30:56.9 $GPGGA,063056.60,3015.7002074,N,12007.0329336,E,5,19,0.6,39.5019,M,7.094,M,0.6,0004*7C
14:30:57.0 $GPGGA,063056.60,3015.7002074,N,12007.0329336,E,5,19,0.6,39.5019,M,7.094,M,0.7,0004*7D
14:30:57.0 $GPGGA,063056.80,3015.7002082,N,12007.0329326,E,5,19,0.6,39.4911,M,7.094,M,0.8,0004*74
14:30:57.0 $GPGGA,063056.80,3015.7002082,N,12007.0329326,E,5,19,0.6,39.4911,M,7.094,M,0.9,0004*75
14:30:57.0 $GPGGA,063057.00,3015.7002057,N,12007.0329295,E,5,19,0.6,39.4985,M,7.094,M,1.0,0004*78
14:30:57.0 $GPGGA,063057.00,3015.7002057,N,12007.0329295,E,5,19,0.6,39.4985,M,7.094,M,1.1,0004*79
14:30:57.0 $GPGGA,063057.20,3015.7002044,N,12007.0329270,E,5,19,0.6,39.5005,M,7.094,M,0.2,0004*70
14:30:57.0 $GPGGA,063057.20,3015.7002044,N,12007.0329270,E,5,19,0.6,39.5005,M,7.094,M,0.3,0004*71
14:30:57.0 $GPGGA,063057.40,3015.7002025,N,12007.0329244,E,5,19,0.6,39.4922,M,7.094,M,0.4,0004*7D
14:30:57.0 $GPGGA,063057.40,3015.7002025,N,12007.0329244,E,5,19,0.6,39.4922,M,7.094,M,0.5,0004*7C
14:30:58.0 $GPGGA,063057.60,3015.7002009,N,12007.0329237,E,5,19,0.6,39.5002,M,7.094,M,0.6,0004*7D
14:30:58.0 $GPGGA,063057.60,3015.7002009,N,12007.0329237,E,5,19,0.6,39.5002,M,7.094,M,0.7,0004*7C
14:30:58.0 $GPGGA,063057.80,3015.7001997,N,12007.0329199,E,5,19,0.6,39.4867,M,7.094,M,0.8,0004*7D
14:30:58.0 $GPGGA,063057.80,3015.7001997,N,12007.0329199,E,5,19,0.6,39.4867,M,7.094,M,0.9,0004*7C
14:30:58.0 $GPGGA,063058.00,3015.7001987,N,12007.0329178,E,5,19,0.6,39.4893,M,7.094,M,1.0,0004*76
14:30:58.0 $GPGGA,063058.00,3015.7001987,N,12007.0329178,E,5,19,0.6,39.4893,M,7.094,M,1.1,0004*77
14:30:58.0 $GPGGA,063058.20,3015.7001976,N,12007.0329161,E,5,19,0.6,39.4963,M,7.094,M,0.2,0004*7F
14:30:58.0 $GPGGA,063058.20,3015.7001976,N,12007.0329161,E,5,19,0.6,39.4963,M,7.094,M,0.3,0004*7E
14:30:58.0 $GPGGA,063058.40,3015.7001962,N,12007.0329139,E,5,19,0.6,39.4976,M,7.094,M,0.4,0004*73
14:30:59.1 $GPGGA,063058.40,3015.7001962,N,12007.0329139,E,5,19,0.6,39.4976,M,7.094,M,0.5,0004*72
14:30:59.1 $GPGGA,063058.60,3015.7001920,N,12007.0329106,E,5,19,0.6,39.5001,M,7.094,M,0.6,0004*71
14:30:59.1 $GPGGA,063058.60,3015.7001920,N,12007.0329106,E,5,19,0.6,39.5001,M,7.094,M,0.7,0004*70
14:30:59.1 $GPGGA,063058.80,3015.7001918,N,12007.0329090,E,5,19,0.6,39.5007,M,7.094,M,0.8,0004*72
14:30:59.1 $GPGGA,063058.80,3015.7001918,N,12007.0329090,E,5,19,0.6,39.5007,M,7.094,M,0.9,0004*73
14:30:59.1 $GPGGA,063059.00,3015.7001930,N,12007.0329080,E,5,19,0.6,39.4898,M,7.094,M,1.0,0004*76
14:30:59.1 $GPGGA,063059.00,3015.7001930,N,12007.0329080,E,5,19,0.6,39.4898,M,7.094,M,1.1,0004*77
14:30:59.1 $GPGGA,063059.20,3015.7001902,N,12007.0329043,E,5,19,0.6,39.5050,M,7.094,M,0.2,0004*74
14:30:59.1 $GPGGA,063059.20,3015.7001902,N,12007.0329043,E,5,19,0.6,39.5050,M,7.094,M,0.3,0004*75
14:31:0.2 $GPGGA,063059.40,3015.7001903,N,12007.0329035,E,5,19,0.6,39.4878,M,7.094,M,0.4,0004*77
14:31:0.2 $GPGGA,063059.40,3015.7001903,N,12007.0329035,E,5,19,0.6,39.4878,M,7.094,M,0.5,0004*76
14:31:0.2 $GPGGA,063059.60,3015.7001883,N,12007.0329008,E,5,19,0.6,39.4917,M,7.094,M,0.6,0004*78
14:31:0.2 $GPGGA,063059.60,3015.7001883,N,12007.0329008,E,5,19,0.6,39.4917,M,7.094,M,0.7,0004*79
14:31:0.2 $GPGGA,063059.80,3015.7001869,N,12007.0329003,E,5,19,0.6,39.4961,M,7.094,M,0.8,0004*76
14:31:0.2 $GPGGA,063059.80,3015.7001869,N,12007.0329003,E,5,19,0.6,39.4961,M,7.094,M,0.9,0004*77
14:31:0.2 $GPGGA,063100.00,3015.7001872,N,12007.0328957,E,5,19,0.6,39.4904,M,7.094,M,1.0,0004*7A
14:31:0.2 $GPGGA,063100.00,3015.7001872,N,12007.0328957,E,5,19,0.6,39.4904,M,7.094,M,0.1,0004*7A
14:31:0.2 $GPGGA,063100.20,3015.7001870,N,12007.0328928,E,5,19,0.6,39.4751,M,7.094,M,0.2,0004*7F
14:31:1.3 $GPGGA,063100.20,3015.7001870,N,12007.0328928,E,5,19,0.6,39.4751,M,7.094,M,0.3,0004*7E
14:31:1.3 $GPGGA,063100.40,3015.7001835,N,12007.0328906,E,5,19,0.6,39.4910,M,7.094,M,0.4,0004*79
14:31:1.3 $GPGGA,063100.40,3015.7001835,N,12007.0328906,E,5,19,0.6,39.4910,M,7.094,M,0.5,0004*78
14:31:1.3 $GPGGA,063100.60,3015.7001842,N,12007.0328880,E,5,19,0.6,39.4831,M,7.094,M,0.6,0004*74
14:31:1.3 $GPGGA,063100.60,3015.7001842,N,12007.0328880,E,5,19,0.6,39.4831,M,7.094,M,0.7,0004*75
14:31:1.3 $GPGGA,063100.80,3015.7001818,N,12007.0328838,E,5,19,0.6,39.4798,M,7.094,M,0.8,0004*74
14:31:1.3 $GPGGA,063100.80,3015.7001818,N,12007.0328838,E,5,19,0.6,39.4798,M,7.094,M,0.9,0004*75
14:31:1.3 $GPGGA,063101.00,3015.7001804,N,12007.0328836,E,5,19,0.6,39.4714,M,7.094,M,1.0,0004*73
14:31:1.3 $GPGGA,063101.00,3015.7001804,N,12007.0328836,E,5,19,0.6,39.4714,M,7.094,M,1.1,0004*72
14:31:2.3 $GPGGA,063101.20,3015.7001776,N,12007.0328808,E,5,20,0.6,39.4716,M,7.094,M,0.2,0004*7D
14:31:2.3 $GPGGA,063101.20,3015.7001776,N,12007.0328808,E,5,20,0.6,39.4716,M,7.094,M,0.3,0004*7C
14:31:2.3 $GPGGA,063101.40,3015.7001779,N,12007.0328789,E,5,20,0.6,39.4729,M,7.094,M,0.4,0004*78
14:31:2.3 $GPGGA,063101.40,3015.7001779,N,12007.0328789,E,5,20,0.6,39.4729,M,7.094,M,0.5,0004*79
14:31:2.3 $GPGGA,063101.60,3015.7001756,N,12007.0328751,E,5,20,0.6,39.4697,M,7.094,M,0.6,0004*74
14:31:2.3 $GPGGA,063101.60,3015.7001756,N,12007.0328751,E,5,20,0.6,39.4697,M,7.094,M,0.7,0004*75
14:31:2.3 $GPGGA,063101.80,3015.7001761,N,12007.0328749,E,5,20,0.6,39.4621,M,7.094,M,0.8,0004*74
14:31:2.3 $GPGGA,063101.80,3015.7001761,N,12007.0328749,E,5,20,0.6,39.4621,M,7.094,M,0.9,0004*75
14:31:2.3 $GPGGA,063102.00,3015.7001751,N,12007.0328719,E,5,20,0.6,39.4561,M,7.094,M,1.0,0004*77
14:31:2.3 $GPGGA,063102.00,3015.7001751,N,12007.0328719,E,5,20,0.6,39.4561,M,7.094,M,1.1,0004*76
14:31:3.4 $GPGGA,063102.20,3015.7001730,N,12007.0328691,E,5,20,0.6,39.4642,M,7.094,M,0.2,0004*72
14:31:3.4 $GPGGA,063102.20,3015.7001730,N,12007.0328691,E,5,20,0.6,39.4642,M,7.094,M,0.3,0004*73
14:31:3.4 $GPGGA,063102.40,3015.7001922,N,12007.0328474,E,5,20,0.6,39.4786,M,7.094,M,0.4,0004*7F
14:31:3.4 $GPGGA,063102.40,3015.7001922,N,12007.0328474,E,5,20,0.6,39.4786,M,7.094,M,0.5,0004*7E
14:31:3.4 $GPGGA,063102.60,3015.7002028,N,12007.0327859,E,5,20,0.6,39.4629,M,7.094,M,0.6,0004*77
14:31:3.4 $GPGGA,063102.60,3015.7002028,N,12007.0327859,E,5,20,0.6,39.4629,M,7.094,M,0.7,0004*76
14:31:3.4 $GPGGA,063102.80,3015.7001860,N,12007.0327995,E,5,19,0.6,39.4611,M,7.094,M,0.8,0004*70
14:31:3.4 $GPGGA,063102.80,3015.7001860,N,12007.0327995,E,5,19,0.6,39.4611,M,7.094,M,0.9,0004*71
14:31:3.4 $GPGGA,063103.00,3015.7001603,N,12007.0327973,E,5,18,0.6,39.4423,M,7.094,M,1.0,0004*71
14:31:3.4 $GPGGA,063103.00,3015.7001603,N,12007.0327973,E,5,18,0.6,39.4423,M,7.094,M,0.1,0004*71
14:31:3.4 $GPGGA,063103.20,3015.7000841,N,12007.0328096,E,5,18,0.6,39.4657,M,7.094,M,0.2,0004*75
14:31:3.4 $GPGGA,063103.20,3015.7000841,N,12007.0328096,E,5,18,0.6,39.4657,M,7.094,M,0.3,0004*74
14:31:3.4 $GPGGA,063103.40,3015.7000335,N,12007.0328031,E,5,19,0.6,39.6075,M,7.094,M,0.4,0004*75
14:31:3.4 $GPGGA,063103.40,3015.7000335,N,12007.0328031,E,5,19,0.6,39.6075,M,7.094,M,0.5,0004*74
14:31:3.4 $GPGGA,063103.60,3015.6999759,N,12007.0327696,E,5,18,0.6,39.5813,M,7.094,M,0.6,0004*7D
14:31:3.4 $GPGGA,063103.60,3015.6999759,N,12007.0327696,E,5,18,0.6,39.5813,M,7.094,M,0.7,0004*7C
14:31:3.4 $GPGGA,063103.80,3015.6999080,N,12007.0327144,E,5,18,0.6,39.7003,M,7.094,M,0.8,0004*7D
14:31:4.5 $GPGGA,063103.80,3015.6999080,N,12007.0327144,E,5,18,0.6,39.7003,M,7.094,M,0.9,0004*7C
14:31:4.5 $GPGGA,063104.00,3015.6998740,N,12007.0326766,E,5,19,0.6,39.7094,M,7.094,M,1.0,0004*79
14:31:4.5 $GPGGA,063104.00,3015.6998740,N,12007.0326766,E,5,19,0.6,39.7094,M,7.094,M,0.1,0004*79
14:31:4.5 $GPGGA,063104.20,3015.6998410,N,12007.0326580,E,5,19,0.6,39.6742,M,7.094,M,0.2,0004*79
14:31:4.5 $GPGGA,063104.20,3015.6998410,N,12007.0326580,E,5,19,0.6,39.6742,M,7.094,M,0.3,0004*78
14:31:4.5 $GPGGA,063104.40,3015.6998245,N,12007.0326486,E,5,19,0.6,39.6400,M,7.094,M,0.4,0004*7D
14:31:4.5 $GPGGA,063104.40,3015.6998245,N,12007.0326486,E,5,19,0.6,39.6400,M,7.094,M,0.5,0004*7C
14:31:4.5 $GPGGA,063104.60,3015.6970749,N,12007.0306864,E,1,32,0.6,17.5762,M,7.094,M,,0004*5D
14:31:4.5 $GPGGA,063104.70,3015.6970749,N,12007.0306864,E,1,32,0.6,17.5762,M,7.094,M,,0004*5C
14:31:5.6 $GPGGA,063104.80,3015.6969323,N,12007.0313777,E,1,32,0.7,18.5313,M,7.094,M,,0004*56
14:31:5.6 $GPGGA,063104.90,3015.6969323,N,12007.0313777,E,1,32,0.7,18.5313,M,7.094,M,,0004*57
14:31:5.6 $GPGGA,063105.00,3015.6973301,N,12007.0311835,E,1,32,0.7,17.7462,M,7.094,M,,0004*53
14:31:5.6 $GPGGA,063105.10,3015.6973301,N,12007.0311835,E,1,32,0.7,17.7462,M,7.094,M,,0004*52
14:31:5.6 $GPGGA,063105.20,3015.6970533,N,12007.0307471,E,1,32,0.6,17.2706,M,7.094,M,,0004*5B
14:31:5.6 $GPGGA,063105.30,3015.6970533,N,12007.0307471,E,1,32,0.6,17.2706,M,7.094,M,,0004*5A
14:31:5.6 $GPGGA,063105.40,3015.6973441,N,12007.0312524,E,1,31,0.7,17.8885,M,7.094,M,,0004*53
14:31:5.6 $GPGGA,063105.50,3015.6973441,N,12007.0312524,E,1,31,0.7,17.8885,M,7.094,M,,0004*52
14:31:5.6 $GPGGA,063105.60,3015.6998762,N,12007.0325605,E,5,18,0.6,36.4398,M,7.094,M,0.6,0004*7C
14:31:5.6 $GPGGA,063105.60,3015.6998762,N,12007.0325605,E,5,18,0.6,36.4398,M,7.094,M,0.7,0004*7D
14:31:6.6 $GPGGA,063105.80,3015.6998224,N,12007.0326432,E,5,19,0.6,39.6045,M,7.094,M,0.8,0004*71
14:31:6.6 $GPGGA,063105.80,3015.6998224,N,12007.0326432,E,5,19,0.6,39.6045,M,7.094,M,0.9,0004*70
14:31:6.6 $GPGGA,063106.00,3015.6998230,N,12007.0326440,E,5,17,0.6,39.6162,M,7.094,M,1.0,0004*79
14:31:6.6 $GPGGA,063106.00,3015.6998230,N,12007.0326440,E,5,17,0.6,39.6162,M,7.094,M,0.1,0004*79
14:31:6.6 $GPGGA,063106.20,3015.6998222,N,12007.0326494,E,5,18,0.6,39.5972,M,7.094,M,0.2,0004*77
14:31:6.6 $GPGGA,063106.20,3015.6998222,N,12007.0326494,E,5,18,0.6,39.5972,M,7.094,M,0.3,0004*76
14:31:6.6 $GPGGA,063106.40,3015.6998213,N,12007.0326465,E,5,18,0.6,39.6001,M,7.094,M,0.4,0004*75
14:31:6.6 $GPGGA,063106.40,3015.6998213,N,12007.0326465,E,5,18,0.6,39.6001,M,7.094,M,0.5,0004*74
14:31:7.7 $GPGGA,063106.60,3015.6998202,N,12007.0326445,E,5,19,0.6,39.5987,M,7.094,M,0.6,0004*72
14:31:7.7 $GPGGA,063106.60,3015.6998202,N,12007.0326445,E,5,19,0.6,39.5987,M,7.094,M,0.7,0004*73
14:31:7.7 $GPGGA,063106.80,3015.6998190,N,12007.0326422,E,5,19,0.6,39.5855,M,7.094,M,0.8,0004*75
14:31:7.7 $GPGGA,063106.80,3015.6998190,N,12007.0326422,E,5,19,0.6,39.5855,M,7.094,M,0.9,0004*74
14:31:7.7 $GPGGA,063107.00,3015.6998153,N,12007.0326383,E,5,19,0.6,39.5886,M,7.094,M,1.0,0004*78
14:31:7.7 $GPGGA,063107.00,3015.6998153,N,12007.0326383,E,5,19,0.6,39.5886,M,7.094,M,1.1,0004*79
14:31:7.7 $GPGGA,063107.20,3015.6998154,N,12007.0326401,E,5,19,0.6,39.5659,M,7.094,M,0.2,0004*7F
14:31:7.7 $GPGGA,063107.20,3015.6998154,N,12007.0326401,E,5,19,0.6,39.5659,M,7.094,M,0.3,0004*7E
14:31:7.7 $GPGGA,063107.40,3015.6998152,N,12007.0326397,E,5,19,0.6,39.5562,M,7.094,M,0.4,0004*7A
14:31:7.7 $GPGGA,063107.40,3015.6998152,N,12007.0326397,E,5,19,0.6,39.5562,M,7.094,M,0.5,0004*7B
14:31:8.7 $GPGGA,063107.60,3015.6998137,N,12007.0326367,E,5,19,0.6,39.5517,M,7.094,M,0.6,0004*74
14:31:8.7 $GPGGA,063107.60,3015.6998137,N,12007.0326367,E,5,19,0.6,39.5517,M,7.094,M,0.7,0004*75
14:31:8.7 $GPGGA,063107.80,3015.6998120,N,12007.0326332,E,5,19,0.6,39.5493,M,7.094,M,0.8,0004*7F
14:31:8.7 $GPGGA,063107.80,3015.6998120,N,12007.0326332,E,5,19,0.6,39.5493,M,7.094,M,0.9,0004*7E
14:31:8.7 $GPGGA,063108.00,3015.6998113,N,12007.0326307,E,5,19,0.6,39.5311,M,7.094,M,1.0,0004*7A
14:31:8.7 $GPGGA,063108.00,3015.6998113,N,12007.0326307,E,5,19,0.6,39.5311,M,7.094,M,0.1,0004*7A
14:31:8.7 $GPGGA,063108.20,3015.6998101,N,12007.0326265,E,5,19,0.6,39.5360,M,7.094,M,0.2,0004*7B
14:31:8.7 $GPGGA,063108.20,3015.6998101,N,12007.0326265,E,5,19,0.6,39.5360,M,7.094,M,0.3,0004*7A
14:31:9.9 $GPGGA,063108.40,3015.6998093,N,12007.0326230,E,5,19,0.6,39.5338,M,7.094,M,0.4,0004*7C
14:31:9.9 $GPGGA,063108.40,3015.6998093,N,12007.0326230,E,5,19,0.6,39.5338,M,7.094,M,0.5,0004*7D
14:31:9.9 $GPGGA,063108.60,3015.6998064,N,12007.0326164,E,5,19,0.6,39.5301,M,7.094,M,0.6,0004*7C
14:31:9.9 $GPGGA,063108.60,3015.6998064,N,12007.0326164,E,5,19,0.6,39.5301,M,7.094,M,0.7,0004*7D
14:31:9.9 $GPGGA,063108.80,3015.6998075,N,12007.0326152,E,5,19,0.6,39.5093,M,7.094,M,0.8,0004*71
14:31:9.9 $GPGGA,063108.80,3015.6998075,N,12007.0326152,E,5,19,0.6,39.5093,M,7.094,M,0.9,0004*70
14:31:9.9 $GPGGA,063109.00,3015.6998059,N,12007.0326116,E,5,19,0.6,39.5076,M,7.094,M,1.0,0004*74
14:31:9.9 $GPGGA,063109.00,3015.6998059,N,12007.0326116,E,5,19,0.6,39.5076,M,7.094,M,0.1,0004*74
14:31:9.9 $GPGGA,063109.20,3015.6998031,N,12007.0326095,E,5,19,0.6,39.5003,M,7.094,M,0.2,0004*73
14:31:9.9 $GPGGA,063109.20,3015.6998031,N,12007.0326095,E,5,19,0.6,39.5003,M,7.094,M,0.3,0004*72
14:31:10.9 $GPGGA,063109.40,3015.6998030,N,12007.0326082,E,5,19,0.6,39.4887,M,7.094,M,0.4,0004*71
14:31:10.9 $GPGGA,063109.40,3015.6998030,N,12007.0326082,E,5,19,0.6,39.4887,M,7.094,M,0.5,0004*70
14:31:10.9 $GPGGA,063109.60,3015.6998014,N,12007.0326071,E,5,19,0.6,39.4778,M,7.094,M,0.6,0004*74
14:31:10.9 $GPGGA,063109.60,3015.6998014,N,12007.0326071,E,5,19,0.6,39.4778,M,7.094,M,0.7,0004*75
14:31:10.9 $GPGGA,063109.80,3015.6998007,N,12007.0326061,E,5,19,0.6,39.4690,M,7.094,M,0.8,0004*70
14:31:10.9 $GPGGA,063109.80,3015.6998007,N,12007.0326061,E,5,19,0.6,39.4690,M,7.094,M,0.9,0004*71
14:31:10.9 $GPGGA,063110.00,3015.6998013,N,12007.0326038,E,5,19,0.6,39.4562,M,7.094,M,1.0,0004*7E
14:31:10.9 $GPGGA,063110.00,3015.6998013,N,12007.0326038,E,5,19,0.6,39.4562,M,7.094,M,0.1,0004*7E
14:31:11.0 $GPGGA,063110.20,3015.6997970,N,12007.0326031,E,5,19,0.6,39.4620,M,7.094,M,0.2,0004*70
14:31:11.0 $GPGGA,063110.20,3015.6997970,N,12007.0326031,E,5,19,0.6,39.4620,M,7.094,M,0.3,0004*71
14:31:11.0 $GPGGA,063110.40,3015.6997976,N,12007.0326063,E,5,19,0.6,39.4514,M,7.094,M,0.4,0004*75
14:31:11.0 $GPGGA,063110.40,3015.6997976,N,12007.0326063,E,5,19,0.6,39.4514,M,7.094,M,0.5,0004*74
14:31:11.0 $GPGGA,063110.60,3015.6997961,N,12007.0326032,E,5,19,0.6,39.4491,M,7.094,M,0.6,0004*7B
14:31:11.0 $GPGGA,063110.60,3015.6997961,N,12007.0326032,E,5,19,0.6,39.4491,M,7.094,M,0.7,0004*7A
14:31:11.0 $GPGGA,063110.80,3015.6997978,N,12007.0326009,E,5,19,0.6,39.4227,M,7.094,M,0.8,0004*70
14:31:11.0 $GPGGA,063110.80,3015.6997978,N,12007.0326009,E,5,19,0.6,39.4227,M,7.094,M,0.9,0004*71
14:31:11.0 $GPGGA,063111.00,3015.6998007,N,12007.0325976,E,5,19,0.6,39.4357,M,7.094,M,1.0,0004*7A
14:31:11.0 $GPGGA,063111.00,3015.6998007,N,12007.0325976,E,5,19,0.6,39.4357,M,7.094,M,0.1,0004*7A
14:31:12.0 $GPGGA,063111.20,3015.6990153,N,12007.0309219,E,4,19,0.6,35.0900,M,7.094,M,0.2,0004*7E
14:31:12.0 $GPGGA,063111.20,3015.6990153,N,12007.0309219,E,4,19,0.6,35.0900,M,7.094,M,0.3,0004*7F
14:31:12.0 $GPGGA,063111.40,3015.6990249,N,12007.0309274,E,4,19,0.6,35.0777,M,7.094,M,0.4,0004*73
14:31:12.0 $GPGGA,063111.40,3015.6990249,N,12007.0309274,E,4,19,0.6,35.0777,M,7.094,M,0.5,0004*72
14:31:12.0 $GPGGA,063111.60,3015.6990262,N,12007.0309199,E,4,19,0.6,35.0782,M,7.094,M,0.6,0004*70
14:31:12.0 $GPGGA,063111.60,3015.6990262,N,12007.0309199,E,4,19,0.6,35.0782,M,7.094,M,0.7,0004*71
14:31:12.0 $GPGGA,063111.80,3015.6990239,N,12007.0309154,E,4,19,0.6,35.1091,M,7.094,M,0.8,0004*7B
14:31:12.0 $GPGGA,063111.80,3015.6990239,N,12007.0309154,E,4,19,0.6,35.1091,M,7.094,M,0.9,0004*7A
14:31:12.1 $GPGGA,063112.00,3015.6990190,N,12007.0309129,E,4,19,0.6,35.0794,M,7.094,M,1.0,0004*70
14:31:12.1 $GPGGA,063112.00,3015.6990190,N,12007.0309129,E,4,19,0.6,35.0794,M,7.094,M,1.1,0004*71
14:31:12.1 $GPGGA,063112.20,3015.6990193,N,12007.0309141,E,4,19,0.6,35.0710,M,7.094,M,0.2,0004*70
14:31:12.1 $GPGGA,063112.20,3015.6990193,N,12007.0309141,E,4,19,0.6,35.0710,M,7.094,M,0.3,0004*71
14:31:12.1 $GPGGA,063112.40,3015.6990263,N,12007.0309197,E,4,19,0.6,35.0641,M,7.094,M,0.4,0004*72
14:31:12.1 $GPGGA,063112.40,3015.6990263,N,12007.0309197,E,4,19,0.6,35.0641,M,7.094,M,0.5,0004*73
14:31:12.1 $GPGGA,063112.60,3015.6990248,N,12007.0309164,E,4,19,0.6,35.0734,M,7.094,M,0.6,0004*74
14:31:12.1 $GPGGA,063112.60,3015.6990248,N,12007.0309164,E,4,19,0.6,35.0734,M,7.094,M,0.7,0004*75
14:31:12.1 $GPGGA,063112.80,3015.6990218,N,12007.0309158,E,4,19,0.6,35.0717,M,7.094,M,0.8,0004*7F
14:31:12.1 $GPGGA,063112.80,3015.6990218,N,12007.0309158,E,4,19,0.6,35.0717,M,7.094,M,0.9,0004*7E
14:31:13.2 $GPGGA,063113.00,3015.6990187,N,12007.0309159,E,4,19,0.6,35.0657,M,7.094,M,1.0,0004*7E
14:31:13.2 $GPGGA,063113.00,3015.6990187,N,12007.0309159,E,4,19,0.6,35.0657,M,7.094,M,0.1,0004*7E
14:31:13.2 $GPGGA,063113.20,3015.6990177,N,12007.0309160,E,4,19,0.6,35.0728,M,7.094,M,0.2,0004*73
14:31:13.2 $GPGGA,063113.20,3015.6990177,N,12007.0309160,E,4,19,0.6,35.0728,M,7.094,M,0.3,0004*72
14:31:13.2 $GPGGA,063113.40,3015.6990183,N,12007.0309133,E,4,18,0.6,35.0820,M,7.094,M,0.4,0004*78
14:31:13.2 $GPGGA,063113.40,3015.6990183,N,12007.0309133,E,4,18,0.6,35.0820,M,7.094,M,0.5,0004*79
14:31:13.2 $GPGGA,063113.60,3015.6990161,N,12007.0309088,E,4,19,0.6,35.0815,M,7.094,M,0.6,0004*72
14:31:13.2 $GPGGA,063113.60,3015.6990161,N,12007.0309088,E,4,19,0.6,35.0815,M,7.094,M,0.7,0004*73
14:31:14.3 $GPGGA,063113.80,3015.6990167,N,12007.0309101,E,4,19,0.6,35.0749,M,7.094,M,0.8,0004*72
14:31:14.3 $GPGGA,063113.80,3015.6990167,N,12007.0309101,E,4,19,0.6,35.0749,M,7.094,M,0.9,0004*73
14:31:14.3 $GPGGA,063114.00,3015.6990199,N,12007.0309138,E,4,19,0.6,35.0444,M,7.094,M,1.0,0004*71
14:31:14.3 $GPGGA,063114.00,3015.6990199,N,12007.0309138,E,4,19,0.6,35.0444,M,7.094,M,0.1,0004*71
14:31:14.3 $GPGGA,063114.20,3015.6990192,N,12007.0309179,E,4,19,0.6,35.0636,M,7.094,M,0.2,0004*79
14:31:14.3 $GPGGA,063114.20,3015.6990192,N,12007.0309179,E,4,19,0.6,35.0636,M,7.094,M,0.3,0004*78
14:31:14.3 $GPGGA,063114.40,3015.6990225,N,12007.0309162,E,4,19,0.6,35.0587,M,7.094,M,0.4,0004*75
14:31:14.3 $GPGGA,063114.40,3015.6990225,N,12007.0309162,E,4,19,0.6,35.0587,M,7.094,M,0.5,0004*74
14:31:14.3 $GPGGA,063114.60,3015.6990229,N,12007.0309146,E,4,19,0.6,35.0735,M,7.094,M,0.6,0004*74
14:31:14.3 $GPGGA,063114.60,3015.6990229,N,12007.0309146,E,4,19,0.6,35.0735,M,7.094,M,0.7,0004*75
14:31:15.3 $GPGGA,063114.80,3015.6990246,N,12007.0309110,E,4,19,0.6,35.1102,M,7.094,M,0.8,0004*7D
14:31:15.3 $GPGGA,063114.80,3015.6990246,N,12007.0309110,E,4,19,0.6,35.1102,M,7.094,M,0.9,0004*7C
14:31:15.3 $GPGGA,063115.00,3015.6990282,N,12007.0309070,E,4,19,0.6,35.1328,M,7.094,M,1.0,0004*78
14:31:15.3 $GPGGA,063115.00,3015.6990282,N,12007.0309070,E,4,19,0.6,35.1328,M,7.094,M,1.1,0004*79
14:31:15.3 $GPGGA,063115.20,3015.6990275,N,12007.0309091,E,4,19,0.6,35.1505,M,7.094,M,0.2,0004*77
14:31:15.3 $GPGGA,063115.20,3015.6990275,N,12007.0309091,E,4,19,0.6,35.1505,M,7.094,M,0.3,0004*76
14:31:15.3 $GPGGA,063115.40,3015.6990332,N,12007.0309106,E,4,19,0.6,35.1558,M,7.094,M,0.4,0004*72
14:31:15.3 $GPGGA,063115.40,3015.6990332,N,12007.0309106,E,4,19,0.6,35.1558,M,7.094,M,0.5,0004*73
14:31:16.4 $GPGGA,063115.60,3015.6990342,N,12007.0309076,E,4,19,0.6,35.1490,M,7.094,M,0.6,0004*76
14:31:16.4 $GPGGA,063115.60,3015.6990342,N,12007.0309076,E,4,19,0.6,35.1490,M,7.094,M,0.7,0004*77
14:31:16.4 $GPGGA,063115.80,3015.6990492,N,12007.0309334,E,4,19,0.6,35.0350,M,7.094,M,0.8,0004*73
14:31:16.4 $GPGGA,063115.80,3015.6990492,N,12007.0309334,E,4,19,0.6,35.0350,M,7.094,M,0.9,0004*72
14:31:16.4 $GPGGA,063116.00,3015.6990643,N,12007.0309346,E,4,19,0.6,35.0588,M,7.094,M,1.0,0004*79
14:31:16.4 $GPGGA,063116.00,3015.6990643,N,12007.0309346,E,4,19,0.6,35.0588,M,7.094,M,1.1,0004*78
14:31:16.4 $GPGGA,063116.20,3015.6990704,N,12007.0309402,E,4,19,0.6,35.0475,M,7.094,M,0.2,0004*7E
14:31:16.4 $GPGGA,063116.20,3015.6990704,N,12007.0309402,E,4,19,0.6,35.0475,M,7.094,M,0.3,0004*7F
14:31:16.4 $GPGGA,063116.40,3015.6990674,N,12007.0309350,E,4,19,0.6,35.0518,M,7.094,M,0.4,0004*72
14:31:16.4 $GPGGA,063116.40,3015.6990674,N,12007.0309350,E,4,19,0.6,35.0518,M,7.094,M,0.5,0004*73
14:31:17.5 $GPGGA,063116.60,3015.6990670,N,12007.0309345,E,4,19,0.6,35.0579,M,7.094,M,0.6,0004*75
14:31:17.5 $GPGGA,063116.60,3015.6990670,N,12007.0309345,E,4,19,0.6,35.0579,M,7.094,M,0.7,0004*74
14:31:17.5 $GPGGA,063116.80,3015.6990715,N,12007.0309348,E,4,19,0.6,35.0699,M,7.094,M,0.8,0004*77
14:31:17.5 $GPGGA,063116.80,3015.6990715,N,12007.0309348,E,4,19,0.6,35.0699,M,7.094,M,0.9,0004*76
14:31:17.5 $GPGGA,063117.00,3015.6990687,N,12007.0309305,E,4,19,0.6,35.0755,M,7.094,M,1.0,0004*75
14:31:17.5 $GPGGA,063117.00,3015.6990687,N,12007.0309305,E,4,19,0.6,35.0755,M,7.094,M,0.1,0004*75
14:31:17.5 $GPGGA,063117.20,3015.6990723,N,12007.0309314,E,4,19,0.6,35.0818,M,7.094,M,0.2,0004*7D
14:31:17.5 $GPGGA,063117.20,3015.6990723,N,12007.0309314,E,4,19,0.6,35.0818,M,7.094,M,0.3,0004*7C
14:31:18.6 $GPGGA,063117.40,3015.6991173,N,12007.0309601,E,4,19,0.6,35.0462,M,7.094,M,0.4,0004*7F
14:31:18.6 $GPGGA,063117.40,3015.6991173,N,12007.0309601,E,4,19,0.6,35.0462,M,7.094,M,0.5,0004*7E
14:31:18.6 $GPGGA,063117.60,3015.6992072,N,12007.0309996,E,4,19,0.6,35.0281,M,7.094,M,0.6,0004*76
14:31:18.6 $GPGGA,063117.60,3015.6992072,N,12007.0309996,E,4,19,0.6,35.0281,M,7.094,M,0.7,0004*77
14:31:18.6 $GPGGA,063117.80,3015.6992484,N,12007.0310044,E,4,19,0.6,35.0211,M,7.094,M,0.8,0004*7C
14:31:18.6 $GPGGA,063117.80,3015.6992484,N,12007.0310044,E,4,19,0.6,35.0211,M,7.094,M,0.9,0004*7D
14:31:18.6 $GPGGA,063118.00,3015.6992612,N,12007.0310040,E,4,19,0.6,35.0102,M,7.094,M,1.0,0004*7A
14:31:18.6 $GPGGA,063118.00,3015.6992612,N,12007.0310040,E,4,19,0.6,35.0102,M,7.094,M,0.1,0004*7A
14:31:18.6 $GPGGA,063118.20,3015.6992684,N,12007.0310094,E,4,19,0.6,35.0183,M,7.094,M,0.2,0004*74
14:31:18.6 $GPGGA,063118.20,3015.6992684,N,12007.0310094,E,4,19,0.6,35.0183,M,7.094,M,0.3,0004*75
14:31:19.6 $GPGGA,063118.40,3015.6992754,N,12007.0310211,E,4,19,0.6,35.0233,M,7.094,M,0.4,0004*7F
14:31:19.6 $GPGGA,063118.40,3015.6992754,N,12007.0310211,E,4,19,0.6,35.0233,M,7.094,M,0.5,0004*7E
14:31:19.6 $GPGGA,063118.60,3015.6992808,N,12007.0310281,E,4,19,0.6,34.9997,M,7.094,M,0.6,0004*7D
14:31:19.6 $GPGGA,063118.60,3015.6992808,N,12007.0310281,E,4,19,0.6,34.9997,M,7.094,M,0.7,0004*7C
14:31:19.6 $GPGGA,063118.80,3015.6992838,N,12007.0310240,E,4,18,0.6,34.9947,M,7.094,M,0.8,0004*7F
14:31:19.6 $GPGGA,063118.80,3015.6992838,N,12007.0310240,E,4,18,0.6,34.9947,M,7.094,M,0.9,0004*7E
14:31:19.6 $GPGGA,063119.00,3015.6992824,N,12007.0310287,E,4,19,0.6,34.9859,M,7.094,M,1.0,0004*76
14:31:19.6 $GPGGA,063119.00,3015.6992824,N,12007.0310287,E,4,19,0.6,34.9859,M,7.094,M,1.1,0004*77
14:31:20.7 $GPGGA,063119.20,3015.6992819,N,12007.0310249,E,4,19,0.6,34.9757,M,7.094,M,0.2,0004*7A
14:31:20.7 $GPGGA,063119.20,3015.6992819,N,12007.0310249,E,4,19,0.6,34.9757,M,7.094,M,0.3,0004*7B
14:31:20.7 $GPGGA,063119.40,3015.6992778,N,12007.0310246,E,4,19,0.6,34.9888,M,7.094,M,0.4,0004*70
14:31:20.7 $GPGGA,063119.40,3015.6992778,N,12007.0310246,E,4,19,0.6,34.9888,M,7.094,M,0.5,0004*71
14:31:20.7 $GPGGA,063119.60,3015.6992791,N,12007.0310235,E,4,19,0.6,34.9912,M,7.094,M,0.6,0004*71
14:31:20.7 $GPGGA,063119.60,3015.6992791,N,12007.0310235,E,4,19,0.6,34.9912,M,7.094,M,0.7,0004*70
14:31:20.7 $GPGGA,063119.80,3015.6992862,N,12007.0310138,E,4,19,0.6,35.0081,M,7.094,M,0.8,0004*77
14:31:20.7 $GPGGA,063119.80,3015.6992862,N,12007.0310138,E,4,19,0.6,35.0081,M,7.094,M,0.9,0004*76
14:31:20.7 $GPGGA,063120.00,3015.6992980,N,12007.0309998,E,4,19,0.6,34.9833,M,7.094,M,1.0,0004*72
14:31:20.7 $GPGGA,063120.00,3015.6992980,N,12007.0309998,E,4,19,0.6,34.9833,M,7.094,M,0.1,0004*72
14:31:21.8 $GPGGA,063120.20,3015.6993021,N,12007.0309941,E,4,18,0.6,34.9762,M,7.094,M,0.2,0004*7E
14:31:21.8 $GPGGA,063120.20,3015.6993021,N,12007.0309941,E,4,18,0.6,34.9762,M,7.094,M,0.3,0004*7F
14:31:21.8 $GPGGA,063120.40,3015.6993012,N,12007.0309932,E,4,18,0.6,34.9742,M,7.094,M,0.4,0004*78
14:31:21.8 $GPGGA,063120.40,3015.6993012,N,12007.0309932,E,4,18,0.6,34.9742,M,7.094,M,0.5,0004*79
14:31:21.8 $GPGGA,063120.60,3015.6992676,N,12007.0309945,E,4,18,0.6,34.9344,M,7.094,M,0.6,0004*7F
14:31:21.8 $GPGGA,063120.60,3015.6992676,N,12007.0309945,E,4,18,0.6,34.9344,M,7.094,M,0.7,0004*7E
14:31:21.8 $GPGGA,063120.80,3015.6992020,N,12007.0310060,E,4,18,0.6,35.0083,M,7.094,M,0.8,0004*7C
14:31:21.8 $GPGGA,063120.80,3015.6992020,N,12007.0310060,E,4,18,0.6,35.0083,M,7.094,M,0.9,0004*7D
14:31:21.8 $GPGGA,063121.00,3015.6975724,N,12007.0302447,E,1,30,0.6,16.1220,M,7.094,M,,0004*5F
14:31:21.8 $GPGGA,063121.10,3015.6975724,N,12007.0302447,E,1,28,0.6,16.1220,M,7.094,M,,0004*57
14:31:21.8 $GPGGA,063121.20,3015.6973748,N,12007.0299318,E,1,29,0.6,14.8578,M,7.094,M,,0004*56
14:31:21.8 $GPGGA,063121.30,3015.6973748,N,12007.0299318,E,1,30,0.6,14.8578,M,7.094,M,,0004*5F
14:31:21.8 $GPGGA,063121.40,3015.7000390,N,12007.0317036,E,5,17,0.6,34.4374,M,7.094,M,0.4,0004*72
14:31:21.8 $GPGGA,063121.40,3015.7000390,N,12007.0317036,E,5,17,0.6,34.4374,M,7.094,M,0.5,0004*73
14:31:21.8 $GPGGA,063121.60,3015.6992360,N,12007.0310064,E,5,17,0.6,35.1165,M,7.094,M,0.6,0004*78
14:31:21.8 $GPGGA,063121.60,3015.6992360,N,12007.0310064,E,5,17,0.6,35.1165,M,7.094,M,0.7,0004*79
14:31:21.8 $GPGGA,063121.80,3015.6975017,N,12007.0302569,E,1,30,0.6,15.5178,M,7.094,M,,0004*54
14:31:21.8 $GPGGA,063121.90,3015.6975017,N,12007.0302569,E,1,31,0.6,15.5178,M,7.094,M,,0004*54
14:31:22.9 $GPGGA,063122.00,3015.6974479,N,12007.0304210,E,1,30,0.6,16.3129,M,7.094,M,,0004*5C
14:31:22.9 $GPGGA,063122.10,3015.6974479,N,12007.0304210,E,1,31,0.6,16.3129,M,7.094,M,,0004*5C
14:31:22.9 $GPGGA,063122.20,3015.6992506,N,12007.0310573,E,5,16,0.6,35.0547,M,7.094,M,0.2,0004*7A
14:31:22.9 $GPGGA,063122.20,3015.6992506,N,12007.0310573,E,5,16,0.6,35.0547,M,7.094,M,0.3,0004*7B
14:31:22.9 $GPGGA,063122.40,3015.6973822,N,12007.0305731,E,1,30,0.6,16.1309,M,7.094,M,,0004*58
14:31:22.9 $GPGGA,063122.50,3015.6973822,N,12007.0305731,E,1,31,0.6,16.1309,M,7.094,M,,0004*58
14:31:22.9 $GPGGA,063122.60,3015.6992660,N,12007.0310786,E,1,31,0.6,34.9754,M,7.094,M,0.6,0004*78
14:31:22.9 $GPGGA,063122.60,3015.6992660,N,12007.0310786,E,1,31,0.6,34.9754,M,7.094,M,0.7,0004*79
14:31:23.0 $GPGGA,063122.80,3015.6992611,N,12007.0310840,E,1,31,0.6,34.9402,M,7.094,M,0.8,0004*7B
14:31:23.0 $GPGGA,063122.80,3015.6992611,N,12007.0310840,E,1,30,0.6,34.9402,M,7.094,M,0.9,0004*7B
14:31:23.0 $GPGGA,063123.00,3015.6974348,N,12007.0306577,E,1,31,0.6,17.7955,M,7.094,M,,0004*5B
14:31:23.0 $GPGGA,063123.10,3015.6974348,N,12007.0306577,E,1,31,0.6,17.7955,M,7.094,M,,0004*5A
14:31:23.0 $GPGGA,063123.20,3015.6974675,N,12007.0305657,E,1,31,0.6,18.3075,M,7.094,M,,0004*50
14:31:23.0 $GPGGA,063123.30,3015.6974675,N,12007.0305657,E,1,31,0.6,18.3075,M,7.094,M,,0004*51
14:31:23.0 $GPGGA,063123.40,3015.6973747,N,12007.0305961,E,1,31,0.6,17.9980,M,7.094,M,,0004*5D
14:31:23.0 $GPGGA,063123.50,3015.6973747,N,12007.0305961,E,1,31,0.6,17.9980,M,7.094,M,,0004*5C
14:31:23.0 $GPGGA,063123.60,3015.6972882,N,12007.0306559,E,1,29,0.6,17.3205,M,7.094,M,,0004*59
14:31:23.0 $GPGGA,063123.70,3015.6972882,N,12007.0306559,E,1,31,0.6,17.3205,M,7.094,M,,0004*51
14:31:24.1 $GPGGA,063123.80,3015.6971774,N,12007.0309086,E,1,31,0.6,17.9625,M,7.094,M,,0004*5F
14:31:24.1 $GPGGA,063123.90,3015.6971774,N,12007.0309086,E,1,31,0.6,17.9625,M,7.094,M,,0004*5E
14:31:24.1 $GPGGA,063124.00,3015.6996120,N,12007.0317829,E,5,17,0.6,32.6147,M,7.094,M,1.0,0004*78
14:31:24.1 $GPGGA,063124.00,3015.6996120,N,12007.0317829,E,5,17,0.6,32.6147,M,7.094,M,1.1,0004*79
14:31:24.1 $GPGGA,063124.20,3015.6992699,N,12007.0310988,E,1,31,0.6,34.8893,M,7.094,M,0.2,0004*7D
14:31:24.1 $GPGGA,063124.20,3015.6992699,N,12007.0310988,E,1,31,0.6,34.8893,M,7.094,M,0.3,0004*7C
14:31:24.1 $GPGGA,063124.40,3015.6992689,N,12007.0311040,E,5,16,0.6,34.8794,M,7.094,M,0.4,0004*79
14:31:24.1 $GPGGA,063124.40,3015.6992689,N,12007.0311040,E,5,16,0.6,34.8794,M,7.094,M,0.5,0004*78
14:31:24.1 $GPGGA,063124.60,3015.6977143,N,12007.0311995,E,1,31,0.6,19.4289,M,7.094,M,,0004*51
14:31:25.1 $GPGGA,063124.70,3015.6977143,N,12007.0311995,E,1,31,0.6,19.4289,M,7.094,M,,0004*50
14:31:25.1 $GPGGA,063124.80,3015.6973417,N,12007.0309992,E,1,31,0.6,18.9455,M,7.094,M,,0004*5A
14:31:25.1 $GPGGA,063124.90,3015.6973417,N,12007.0309992,E,1,31,0.6,18.9455,M,7.094,M,,0004*5B
14:31:25.1 $GPGGA,063125.00,3015.6997272,N,12007.0317733,E,5,17,0.6,32.3801,M,7.094,M,1.0,0004*76
14:31:25.1 $GPGGA,063125.00,3015.6997272,N,12007.0317733,E,5,17,0.6,32.3801,M,7.094,M,1.1,0004*77
14:31:25.1 $GPGGA,063125.20,3015.6992582,N,12007.0311022,E,5,17,0.6,34.8098,M,7.094,M,0.2,0004*7E
14:31:25.1 $GPGGA,063125.20,3015.6992582,N,12007.0311022,E,5,17,0.6,34.8098,M,7.094,M,0.3,0004*7F
14:31:25.1 $GPGGA,063125.40,3015.6992513,N,12007.0311166,E,5,17,0.6,34.7953,M,7.094,M,0.4,0004*76
14:31:25.1 $GPGGA,063125.40,3015.6992513,N,12007.0311166,E,5,17,0.6,34.7953,M,7.094,M,0.5,0004*77
14:31:26.2 $GPGGA,063125.60,3015.6992486,N,12007.0311281,E,5,18,0.6,34.7615,M,7.094,M,0.6,0004*73
14:31:26.2 $GPGGA,063125.60,3015.6992486,N,12007.0311281,E,5,18,0.6,34.7615,M,7.094,M,0.7,0004*72
14:31:26.2 $GPGGA,063125.80,3015.6992477,N,12007.0311278,E,5,18,0.6,34.7584,M,7.094,M,0.8,0004*70
14:31:26.2 $GPGGA,063125.80,3015.6992477,N,12007.0311278,E,5,18,0.6,34.7584,M,7.094,M,0.9,0004*71
14:31:26.2 $GPGGA,063126.00,3015.6992456,N,12007.0311349,E,5,18,0.6,34.7435,M,7.094,M,1.0,0004*79
14:31:26.2 $GPGGA,063126.00,3015.6992456,N,12007.0311349,E,5,18,0.6,34.7435,M,7.094,M,0.1,0004*79
14:31:26.2 $GPGGA,063126.20,3015.6992461,N,12007.0311412,E,5,18,0.6,34.7293,M,7.094,M,0.2,0004*7F
14:31:26.2 $GPGGA,063126.20,3015.6992461,N,12007.0311412,E,5,18,0.6,34.7293,M,7.094,M,0.3,0004*7E
14:31:26.2 $GPGGA,063126.40,3015.6992427,N,12007.0311422,E,5,17,0.6,34.7179,M,7.094,M,0.4,0004*76
14:31:27.3 $GPGGA,063126.40,3015.6992427,N,12007.0311422,E,5,17,0.6,34.7179,M,7.094,M,0.5,0004*77
14:31:27.3 $GPGGA,063126.60,3015.6992440,N,12007.0311492,E,5,15,0.6,34.6852,M,7.094,M,0.6,0004*7F
14:31:27.3 $GPGGA,063126.60,3015.6992440,N,12007.0311492,E,5,15,0.6,34.6852,M,7.094,M,0.7,0004*7E
14:31:27.3 $GPGGA,063126.80,3015.6992427,N,12007.0311551,E,5,16,0.6,34.6773,M,7.094,M,0.8,0004*7F
14:31:27.3 $GPGGA,063126.80,3015.6992427,N,12007.0311551,E,5,16,0.6,34.6773,M,7.094,M,0.9,0004*7E
14:31:27.3 $GPGGA,063127.00,3015.6992392,N,12007.0311504,E,5,17,0.6,34.6654,M,7.094,M,1.0,0004*73
14:31:27.3 $GPGGA,063127.00,3015.6992392,N,12007.0311504,E,5,17,0.6,34.6654,M,7.094,M,1.1,0004*72
14:31:27.3 $GPGGA,063127.20,3015.6992345,N,12007.0311548,E,5,18,0.6,34.6723,M,7.094,M,0.2,0004*7E
14:31:27.3 $GPGGA,063127.20,3015.6992345,N,12007.0311548,E,5,18,0.6,34.6723,M,7.094,M,0.3,0004*7F
14:31:28.4 $GPGGA,063127.40,3015.6992383,N,12007.0311584,E,5,19,0.6,34.6474,M,7.094,M,0.4,0004*74
14:31:28.4 $GPGGA,063127.40,3015.6992383,N,12007.0311584,E,5,19,0.6,34.6474,M,7.094,M,0.5,0004*75
14:31:28.4 $GPGGA,063127.60,3015.6992367,N,12007.0311559,E,1,32,0.6,34.6435,M,7.094,M,0.6,0004*76
14:31:28.4 $GPGGA,063127.60,3015.6992367,N,12007.0311559,E,1,32,0.6,34.6435,M,7.094,M,0.7,0004*77
14:31:28.4 $GPGGA,063127.80,3015.6992376,N,12007.0311553,E,1,32,0.6,34.6325,M,7.094,M,0.8,0004*7A
14:31:28.4 $GPGGA,063127.80,3015.6992376,N,12007.0311553,E,1,32,0.6,34.6325,M,7.094,M,0.9,0004*7B
14:31:28.4 $GPGGA,063128.00,3015.6992373,N,12007.0311529,E,1,32,0.6,34.6414,M,7.094,M,1.0,0004*79
14:31:28.4 $GPGGA,063128.00,3015.6992373,N,12007.0311529,E,1,32,0.6,34.6414,M,7.094,M,1.1,0004*78
14:31:28.4 $GPGGA,063128.20,3015.6992415,N,12007.0311574,E,1,32,0.6,34.6206,M,7.094,M,0.2,0004*72
14:31:29.4 $GPGGA,063128.20,3015.6992415,N,12007.0311574,E,1,32,0.6,34.6206,M,7.094,M,0.3,0004*73
14:31:29.4 $GPGGA,063128.40,3015.6992387,N,12007.0311562,E,1,32,0.6,34.6330,M,7.094,M,0.4,0004*7D
14:31:29.4 $GPGGA,063128.40,3015.6992387,N,12007.0311562,E,1,32,0.6,34.6330,M,7.094,M,0.5,0004*7C
14:31:29.4 $GPGGA,063128.60,3015.6992452,N,12007.0311632,E,1,32,0.6,34.6266,M,7.094,M,0.6,0004*76
14:31:29.4 $GPGGA,063128.60,3015.6992452,N,12007.0311632,E,1,32,0.6,34.6266,M,7.094,M,0.7,0004*77
14:31:29.4 $GPGGA,063128.80,3015.6974357,N,12007.0307587,E,1,32,0.6,19.3277,M,7.094,M,,0004*5A
14:31:29.4 $GPGGA,063128.90,3015.6974357,N,12007.0307587,E,1,32,0.6,19.3277,M,7.094,M,,0004*5B
14:31:29.4 $GPGGA,063129.00,3015.6976434,N,12007.0307574,E,1,32,0.6,19.1208,M,7.094,M,,0004*55
14:31:29.4 $GPGGA,063129.10,3015.6976434,N,12007.0307574,E,1,32,0.6,19.1208,M,7.094,M,,0004*54
14:31:30.5 $GPGGA,063129.20,3015.6992518,N,12007.0311652,E,1,32,0.6,34.6079,M,7.094,M,0.2,0004*72
14:31:30.5 $GPGGA,063129.20,3015.6992518,N,12007.0311652,E,1,31,0.6,34.6079,M,7.094,M,0.3,0004*70
14:31:30.5 $GPGGA,063129.40,3015.6974481,N,12007.0306700,E,1,32,0.6,18.1431,M,7.094,M,,0004*50
14:31:30.5 $GPGGA,063129.50,3015.6974481,N,12007.0306700,E,1,32,0.6,18.1431,M,7.094,M,,0004*51
14:31:30.5 $GPGGA,063129.60,3015.6973123,N,12007.0308027,E,1,32,0.6,18.0869,M,7.094,M,,0004*54
14:31:30.5 $GPGGA,063129.70,3015.6973123,N,12007.0308027,E,1,32,0.6,18.0869,M,7.094,M,,0004*55
14:31:30.5 $GPGGA,063129.80,3015.6992569,N,12007.0311685,E,1,32,0.6,34.6008,M,7.094,M,0.8,0004*78
14:31:30.5 $GPGGA,063129.80,3015.6992569,N,12007.0311685,E,1,32,0.6,34.6008,M,7.094,M,0.9,0004*79
14:31:30.5 $GPGGA,063130.00,3015.6992564,N,12007.0311712,E,1,32,0.6,34.6063,M,7.094,M,1.0,0004*7E
14:31:30.6 $GPGGA,063130.00,3015.6992564,N,12007.0311712,E,1,32,0.6,34.6063,M,7.094,M,0.1,0004*7E
14:31:30.6 $GPGGA,063130.20,3015.6992545,N,12007.0311710,E,1,32,0.6,34.5953,M,7.094,M,0.2,0004*77
14:31:30.6 $GPGGA,063130.20,3015.6992545,N,12007.0311710,E,1,32,0.6,34.5953,M,7.094,M,0.3,0004*76
14:31:30.6 $GPGGA,063130.40,3015.6992581,N,12007.0311730,E,1,32,0.6,34.5717,M,7.094,M,0.4,0004*73
14:31:30.6 $GPGGA,063130.40,3015.6992581,N,12007.0311730,E,1,32,0.6,34.5717,M,7.094,M,0.5,0004*72
14:31:30.6 $GPGGA,063130.60,3015.6975574,N,12007.0309114,E,1,32,0.6,17.9048,M,7.094,M,0.6,0004*79
14:31:30.6 $GPGGA,063130.60,3015.6975574,N,12007.0309114,E,1,32,0.6,17.9048,M,7.094,M,0.7,0004*78
14:31:30.6 $GPGGA,063130.80,3015.6975583,N,12007.0309107,E,1,31,0.6,17.9171,M,7.094,M,0.8,0004*7B
14:31:30.6 $GPGGA,063130.80,3015.6975583,N,12007.0309107,E,1,32,0.6,17.9171,M,7.094,M,0.9,0004*79
14:31:31.7 $GPGGA,063131.00,3015.6974353,N,12007.0309490,E,1,32,0.6,18.3729,M,7.094,M,,0004*58
14:31:31.7 $GPGGA,063131.10,3015.6974353,N,12007.0309490,E,1,33,0.6,18.3729,M,7.094,M,,0004*58
14:31:31.7 $GPGGA,063131.20,3015.6975635,N,12007.0309156,E,1,33,0.6,17.9400,M,7.094,M,0.2,0004*71
14:31:31.7 $GPGGA,063131.20,3015.6975635,N,12007.0309156,E,1,34,0.6,17.9400,M,7.094,M,0.3,0004*77
14:31:31.7 $GPGGA,063131.40,3015.6976451,N,12007.0286987,E,1,34,0.6,50.6980,M,7.094,M,,0004*54
14:31:31.7 $GPGGA,063131.50,3015.6976451,N,12007.0286987,E,1,34,0.6,50.6980,M,7.094,M,,0004*55
14:31:31.7 $GPGGA,063131.60,3015.6976429,N,12007.0287248,E,1,34,0.6,50.6822,M,7.094,M,,0004*59
14:31:31.7 $GPGGA,063131.70,3015.6976429,N,12007.0287248,E,1,34,0.6,50.6822,M,7.094,M,,0004*58
14:31:31.7 $GPGGA,063131.80,3015.6976073,N,12007.0286822,E,1,34,0.6,50.5419,M,7.094,M,,0004*5C
14:31:32.7 $GPGGA,063131.90,3015.6976073,N,12007.0286822,E,1,34,0.6,50.5419,M,7.094,M,,0004*5D
14:31:32.7 $GPGGA,063132.00,3015.6996454,N,12007.0317136,E,1,34,0.6,36.1746,M,7.094,M,1.0,0004*7F
14:31:32.7 $GPGGA,063132.00,3015.6996454,N,12007.0317136,E,1,34,0.6,36.1746,M,7.094,M,1.1,0004*7E
14:31:32.7 $GPGGA,063132.20,3015.6996434,N,12007.0317122,E,1,34,0.6,36.1709,M,7.094,M,0.2,0004*76
14:31:32.7 $GPGGA,063132.20,3015.6996434,N,12007.0317122,E,1,34,0.6,36.1709,M,7.094,M,0.3,0004*77
14:31:32.7 $GPGGA,063132.40,3015.6996456,N,12007.0317133,E,1,34,0.6,36.1666,M,7.094,M,0.4,0004*7A
14:31:32.7 $GPGGA,063132.40,3015.6996456,N,12007.0317133,E,1,34,0.6,36.1666,M,7.094,M,0.5,0004*7B
14:31:32.7 $GPGGA,063132.60,3015.6996487,N,12007.0317102,E,1,34,0.6,36.1473,M,7.094,M,0.6,0004*72
14:31:32.7 $GPGGA,063132.60,3015.6996487,N,12007.0317102,E,1,34,0.6,36.1473,M,7.094,M,0.7,0004*73
14:31:33.8 $GPGGA,063132.80,3015.6996466,N,12007.0317081,E,1,34,0.6,36.1681,M,7.094,M,0.8,0004*78
14:31:33.8 $GPGGA,063132.80,3015.6996466,N,12007.0317081,E,1,34,0.6,36.1681,M,7.094,M,0.9,0004*79
14:31:33.8 $GPGGA,063133.00,3015.6976791,N,12007.0289826,E,1,34,0.6,49.6310,M,7.094,M,,0004*53
14:31:33.8 $GPGGA,063133.10,3015.6976791,N,12007.0289826,E,1,35,0.6,49.6310,M,7.094,M,,0004*53
14:31:33.8 $GPGGA,063133.20,3015.6996489,N,12007.0317073,E,1,35,0.5,36.1567,M,7.094,M,0.2,0004*7C
14:31:33.8 $GPGGA,063133.20,3015.6996489,N,12007.0317073,E,1,35,0.5,36.1567,M,7.094,M,0.3,0004*7D
14:31:33.8 $GPGGA,063133.40,3015.6996454,N,12007.0317032,E,1,35,0.5,36.1736,M,7.094,M,0.4,0004*7F
14:31:33.8 $GPGGA,063133.40,3015.6996454,N,12007.0317032,E,1,35,0.5,36.1736,M,7.094,M,0.5,0004*7E
14:31:33.8 $GPGGA,063133.60,3015.6996467,N,12007.0317000,E,1,35,0.5,36.1684,M,7.094,M,0.6,0004*76
14:31:34.8 $GPGGA,063133.60,3015.6996467,N,12007.0317000,E,1,35,0.5,36.1684,M,7.094,M,0.7,0004*77
14:31:34.8 $GPGGA,063133.80,3015.6996451,N,12007.0317008,E,1,35,0.5,36.1828,M,7.094,M,0.8,0004*73
14:31:34.8 $GPGGA,063133.80,3015.6996451,N,12007.0317008,E,1,35,0.5,36.1828,M,7.094,M,0.9,0004*72
14:31:34.8 $GPGGA,063134.00,3015.6996485,N,12007.0317001,E,1,35,0.5,36.1761,M,7.094,M,1.0,0004*77
14:31:34.8 $GPGGA,063134.00,3015.6996485,N,12007.0317001,E,1,35,0.5,36.1761,M,7.094,M,0.1,0004*77
14:31:34.8 $GPGGA,063134.20,3015.6996449,N,12007.0317008,E,1,35,0.5,36.1855,M,7.094,M,0.2,0004*77
14:31:34.8 $GPGGA,063134.20,3015.6996449,N,12007.0317008,E,1,35,0.5,36.1855,M,7.094,M,0.3,0004*76
14:31:34.8 $GPGGA,063134.40,3015.6996450,N,12007.0317014,E,1,35,0.5,36.1865,M,7.094,M,0.4,0004*71
14:31:34.8 $GPGGA,063134.40,3015.6996450,N,12007.0317014,E,1,35,0.5,36.1865,M,7.094,M,0.5,0004*70
14:31:35.9 $GPGGA,063134.60,3015.6996473,N,12007.0317043,E,1,35,0.5,36.1841,M,7.094,M,0.6,0004*74
14:31:35.9 $GPGGA,063134.60,3015.6996473,N,12007.0317043,E,1,35,0.5,36.1841,M,7.094,M,0.7,0004*75
14:31:35.9 $GPGGA,063134.80,3015.6996494,N,12007.0317039,E,1,35,0.5,36.1848,M,7.094,M,0.8,0004*79
14:31:35.9 $GPGGA,063134.80,3015.6996494,N,12007.0317039,E,1,35,0.5,36.1848,M,7.094,M,0.9,0004*78
14:31:35.9 $GPGGA,063135.00,3015.6996495,N,12007.0317015,E,1,35,0.5,36.1822,M,7.094,M,1.0,0004*7A
14:31:35.9 $GPGGA,063135.00,3015.6996495,N,12007.0317015,E,1,35,0.5,36.1822,M,7.094,M,0.1,0004*7A
14:31:35.9 $GPGGA,063135.20,3015.6996497,N,12007.0317024,E,1,35,0.5,36.1685,M,7.094,M,0.2,0004*78
14:31:35.9 $GPGGA,063135.20,3015.6996497,N,12007.0317024,E,1,35,0.5,36.1685,M,7.094,M,0.3,0004*79
14:31:35.9 $GPGGA,063135.40,3015.6976446,N,12007.0288214,E,1,35,0.5,48.4479,M,7.094,M,,0004*5B
14:31:36.0 $GPGGA,063135.50,3015.6976446,N,12007.0288214,E,1,35,0.5,48.4479,M,7.094,M,,0004*5A
14:31:36.0 $GPGGA,063135.60,3015.6976407,N,12007.0288321,E,1,35,0.5,48.6549,M,7.094,M,,0004*5B
14:31:36.0 $GPGGA,063135.70,3015.6976407,N,12007.0288321,E,1,35,0.5,48.6549,M,7.094,M,,0004*5A
14:31:36.0 $GPGGA,063135.80,3015.6996465,N,12007.0316988,E,5,21,0.5,36.1698,M,7.094,M,0.8,0004*76
14:31:36.0 $GPGGA,063135.80,3015.6996465,N,12007.0316988,E,5,21,0.5,36.1698,M,7.094,M,0.9,0004*77
14:31:36.0 $GPGGA,063136.00,3015.6996504,N,12007.0317017,E,5,22,0.5,36.1621,M,7.094,M,1.0,0004*7D
14:31:36.0 $GPGGA,063136.00,3015.6996504,N,12007.0317017,E,5,22,0.5,36.1621,M,7.094,M,0.1,0004*7D
14:31:36.0 $GPGGA,063136.20,3015.6996488,N,12007.0317015,E,5,21,0.5,36.1639,M,7.094,M,0.2,0004*71
14:31:36.0 $GPGGA,063136.20,3015.6996488,N,12007.0317015,E,5,21,0.5,36.1639,M,7.094,M,0.3,0004*70
14:31:37.1 $GPGGA,063136.40,3015.6976842,N,12007.0287061,E,1,35,0.5,48.1160,M,7.094,M,,0004*57
14:31:37.1 $GPGGA,063136.50,3015.6976842,N,12007.0287061,E,1,35,0.5,48.1160,M,7.094,M,,0004*56
14:31:37.1 $GPGGA,063136.60,3015.6996542,N,12007.0317017,E,1,35,0.5,36.1379,M,7.094,M,0.6,0004*74
14:31:37.1 $GPGGA,063136.60,3015.6996542,N,12007.0317017,E,1,35,0.5,36.1379,M,7.094,M,0.7,0004*75
14:31:37.1 $GPGGA,063136.80,3015.6996527,N,12007.0317014,E,1,35,0.5,36.1470,M,7.094,M,0.8,0004*7A
14:31:37.1 $GPGGA,063136.80,3015.6996527,N,12007.0317014,E,1,35,0.5,36.1470,M,7.094,M,0.9,0004*7B
14:31:37.1 $GPGGA,063137.00,3015.6975386,N,12007.0287963,E,1,35,0.5,47.7292,M,7.094,M,1.0,0004*71
14:31:37.1 $GPGGA,063137.00,3015.6975386,N,12007.0287963,E,1,35,0.5,47.7292,M,7.094,M,1.1,0004*70
14:31:37.1 $GPGGA,063137.20,3015.6998538,N,12007.0317197,E,1,35,0.5,29.9684,M,7.094,M,0.2,0004*7E
14:31:38.1 $GPGGA,063137.20,3015.6998538,N,12007.0317197,E,1,35,0.5,29.9684,M,7.094,M,0.3,0004*7F
14:31:38.1 $GPGGA,063137.40,3015.6998536,N,12007.0317168,E,1,35,0.5,29.9668,M,7.094,M,0.4,0004*72
14:31:38.1 $GPGGA,063137.40,3015.6998536,N,12007.0317168,E,1,35,0.5,29.9668,M,7.094,M,0.5,0004*73
14:31:38.1 $GPGGA,063137.60,3015.6994226,N,12007.0311353,E,5,20,0.5,31.5321,M,7.094,M,0.6,0004*79
14:31:38.1 $GPGGA,063137.60,3015.6994226,N,12007.0311353,E,5,20,0.5,31.5321,M,7.094,M,0.7,0004*78
14:31:38.1 $GPGGA,063137.80,3015.6998529,N,12007.0317083,E,1,35,0.5,29.9946,M,7.094,M,0.8,0004*7B
14:31:38.1 $GPGGA,063137.80,3015.6998529,N,12007.0317083,E,1,35,0.5,29.9946,M,7.094,M,0.9,0004*7A
14:31:38.1 $GPGGA,063138.00,3015.6975988,N,12007.0285436,E,1,34,0.5,48.9730,M,7.094,M,,0004*57
14:31:38.1 $GPGGA,063138.10,3015.6975988,N,12007.0285436,E,1,35,0.5,48.9730,M,7.094,M,,0004*57
14:31:39.2 $GPGGA,063138.20,3015.6980430,N,12007.0277822,E,1,35,0.5,49.3851,M,7.094,M,,0004*57
14:31:39.2 $GPGGA,063138.30,3015.6980430,N,12007.0277822,E,1,35,0.5,49.3851,M,7.094,M,,0004*56
14:31:39.2 $GPGGA,063138.40,3015.6994467,N,12007.0312793,E,5,21,0.5,31.6388,M,7.094,M,0.4,0004*7F
14:31:39.2 $GPGGA,063138.40,3015.6994467,N,12007.0312793,E,5,21,0.5,31.6388,M,7.094,M,0.5,0004*7E
14:31:39.2 $GPGGA,063138.60,3015.6998742,N,12007.0316598,E,5,22,0.5,30.0573,M,7.094,M,0.6,0004*7C
14:31:39.2 $GPGGA,063138.60,3015.6998742,N,12007.0316598,E,5,22,0.5,30.0573,M,7.094,M,0.7,0004*7D
14:31:39.2 $GPGGA,063138.80,3015.6998882,N,12007.0316455,E,5,21,0.5,30.0540,M,7.094,M,0.8,0004*7C
14:31:39.2 $GPGGA,063138.80,3015.6998882,N,12007.0316455,E,5,21,0.5,30.0540,M,7.094,M,0.9,0004*7D
14:31:39.2 $GPGGA,063139.00,3015.6998959,N,12007.0316464,E,5,21,0.5,29.9679,M,7.094,M,1.0,0004*71
14:31:39.3 $GPGGA,063139.00,3015.6998959,N,12007.0316464,E,5,21,0.5,29.9679,M,7.094,M,0.1,0004*71
14:31:39.3 $GPGGA,063139.20,3015.6998969,N,12007.0316447,E,5,21,0.5,29.9539,M,7.094,M,0.2,0004*75
14:31:39.3 $GPGGA,063139.20,3015.6998969,N,12007.0316447,E,5,21,0.5,29.9539,M,7.094,M,0.3,0004*74
14:31:39.3 $GPGGA,063139.40,3015.6998962,N,12007.0316461,E,5,21,0.5,29.9504,M,7.094,M,0.4,0004*74
14:31:39.3 $GPGGA,063139.40,3015.6998962,N,12007.0316461,E,5,21,0.5,29.9504,M,7.094,M,0.5,0004*75
14:31:39.3 $GPGGA,063139.60,3015.6998947,N,12007.0316462,E,5,21,0.5,29.9488,M,7.094,M,0.6,0004*75
14:31:39.3 $GPGGA,063139.60,3015.6998947,N,12007.0316462,E,5,21,0.5,29.9488,M,7.094,M,0.7,0004*74
14:31:39.3 $GPGGA,063139.80,3015.6998953,N,12007.0316475,E,5,21,0.5,29.9547,M,7.094,M,0.8,0004*74
14:31:39.3 $GPGGA,063139.80,3015.6998953,N,12007.0316475,E,5,21,0.5,29.9547,M,7.094,M,0.9,0004*75
14:31:40.4 $GPGGA,063140.00,3015.6998948,N,12007.0316490,E,5,21,0.6,29.9490,M,7.094,M,1.0,0004*72
14:31:40.4 $GPGGA,063140.00,3015.6998948,N,12007.0316490,E,5,21,0.6,29.9490,M,7.094,M,0.1,0004*72
14:31:40.4 $GPGGA,063140.20,3015.6998935,N,12007.0316498,E,5,21,0.5,29.9801,M,7.094,M,0.2,0004*76
14:31:40.4 $GPGGA,063140.20,3015.6998935,N,12007.0316498,E,5,21,0.5,29.9801,M,7.094,M,0.3,0004*77
14:31:40.4 $GPGGA,063140.40,3015.6998958,N,12007.0316433,E,5,21,0.5,29.9872,M,7.094,M,0.4,0004*78
14:31:40.4 $GPGGA,063140.40,3015.6998958,N,12007.0316433,E,5,21,0.5,29.9872,M,7.094,M,0.5,0004*79
14:31:40.4 $GPGGA,063140.60,3015.6998936,N,12007.0316399,E,5,21,0.5,30.0007,M,7.094,M,0.6,0004*7C
14:31:40.4 $GPGGA,063140.60,3015.6998936,N,12007.0316399,E,5,21,0.5,30.0007,M,7.094,M,0.7,0004*7D
14:31:40.4 $GPGGA,063140.80,3015.6998942,N,12007.0316399,E,5,21,0.5,29.9990,M,7.094,M,0.8,0004*79
14:31:41.4 $GPGGA,063140.80,3015.6998942,N,12007.0316399,E,5,21,0.5,29.9990,M,7.094,M,0.9,0004*78
14:31:41.4 $GPGGA,063141.00,3015.6998957,N,12007.0316400,E,5,21,0.5,29.9924,M,7.094,M,1.0,0004*75
14:31:41.4 $GPGGA,063141.00,3015.6998957,N,12007.0316400,E,5,21,0.5,29.9924,M,7.094,M,0.1,0004*75
14:31:41.4 $GPGGA,063141.20,3015.6998970,N,12007.0316401,E,5,21,0.5,29.9890,M,7.094,M,0.2,0004*7E
14:31:41.4 $GPGGA,063141.20,3015.6998970,N,12007.0316401,E,5,21,0.5,29.9890,M,7.094,M,0.3,0004*7F
14:31:41.4 $GPGGA,063141.40,3015.6998990,N,12007.0316393,E,5,21,0.5,29.9811,M,7.094,M,0.4,0004*75
14:31:41.4 $GPGGA,063141.40,3015.6998990,N,12007.0316393,E,5,21,0.5,29.9811,M,7.094,M,0.5,0004*74
14:31:41.4 $GPGGA,063141.60,3015.6998999,N,12007.0316374,E,5,21,0.5,29.9858,M,7.094,M,0.6,0004*78
14:31:41.4 $GPGGA,063141.60,3015.6998999,N,12007.0316374,E,5,21,0.5,29.9858,M,7.094,M,0.7,0004*79
14:31:42.5 $GPGGA,063141.80,3015.6998997,N,12007.0316364,E,5,21,0.5,29.9886,M,7.094,M,0.8,0004*74
14:31:42.5 $GPGGA,063141.80,3015.6998997,N,12007.0316364,E,5,21,0.5,29.9886,M,7.094,M,0.9,0004*75
14:31:42.5 $GPGGA,063142.00,3015.6999031,N,12007.0316398,E,5,21,0.5,29.9720,M,7.094,M,1.0,0004*72
14:31:42.5 $GPGGA,063142.00,3015.6999031,N,12007.0316398,E,5,21,0.5,29.9720,M,7.094,M,0.1,0004*72
14:31:42.5 $GPGGA,063142.20,3015.6999175,N,12007.0309000,E,4,21,0.5,30.8359,M,7.094,M,0.2,0004*7C
14:31:42.5 $GPGGA,063142.20,3015.6999175,N,12007.0309000,E,4,21,0.5,30.8359,M,7.094,M,0.3,0004*7D
14:31:42.5 $GPGGA,063142.40,3015.6999213,N,12007.0308945,E,5,21,0.5,30.9001,M,7.094,M,0.4,0004*78
14:31:42.5 $GPGGA,063142.40,3015.6999213,N,12007.0308945,E,5,21,0.5,30.9001,M,7.094,M,0.5,0004*79
14:31:42.5 $GPGGA,063142.60,3015.6998829,N,12007.0309967,E,5,21,0.6,30.9352,M,7.094,M,0.6,0004*7D
14:31:43.5 $GPGGA,063142.60,3015.6998829,N,12007.0309967,E,5,21,0.6,30.9352,M,7.094,M,0.7,0004*7C
14:31:43.5 $GPGGA,063142.80,3015.6998705,N,12007.0311084,E,5,17,0.6,31.0214,M,7.094,M,0.8,0004*7F
14:31:43.5 $GPGGA,063142.80,3015.6998705,N,12007.0311084,E,5,17,0.6,31.0214,M,7.094,M,0.9,0004*7E
14:31:43.5 $GPGGA,063143.00,3015.6971841,N,12007.0282447,E,1,30,0.6,53.1028,M,7.094,M,,0004*51
14:31:43.5 $GPGGA,063143.10,3015.6971841,N,12007.0282447,E,1,30,0.6,53.1028,M,7.094,M,,0004*50
14:31:43.5 $GPGGA,063143.20,3015.6998778,N,12007.0311173,E,5,18,0.6,31.0354,M,7.094,M,0.2,0004*77
14:31:43.5 $GPGGA,063143.20,3015.6998778,N,12007.0311173,E,5,18,0.6,31.0354,M,7.094,M,0.3,0004*76
14:31:43.5 $GPGGA,063143.40,3015.6998746,N,12007.0311099,E,5,18,0.6,31.0639,M,7.094,M,0.4,0004*71
14:31:43.5 $GPGGA,063143.40,3015.6998746,N,12007.0311099,E,5,18,0.6,31.0639,M,7.094,M,0.5,0004*70
14:31:44.6 $GPGGA,063143.60,3015.6998782,N,12007.0311248,E,5,19,0.6,31.0722,M,7.094,M,0.6,0004*7D
14:31:44.6 $GPGGA,063143.60,3015.6998782,N,12007.0311248,E,5,19,0.6,31.0722,M,7.094,M,0.7,0004*7C
14:31:44.6 $GPGGA,063143.80,3015.6998823,N,12007.0311162,E,5,19,0.6,31.0531,M,7.094,M,0.8,0004*72
14:31:44.6 $GPGGA,063143.80,3015.6998823,N,12007.0311162,E,5,19,0.6,31.0531,M,7.094,M,0.9,0004*73
14:31:44.6 $GPGGA,063144.00,3015.6998851,N,12007.0310977,E,5,19,0.6,31.0556,M,7.094,M,1.0,0004*7D
14:31:44.6 $GPGGA,063144.00,3015.6998851,N,12007.0310977,E,5,19,0.6,31.0556,M,7.094,M,0.1,0004*7D
14:31:44.6 $GPGGA,063144.20,3015.6998838,N,12007.0310925,E,5,18,0.6,31.0838,M,7.094,M,0.2,0004*70
14:31:44.6 $GPGGA,063144.20,3015.6998838,N,12007.0310925,E,5,18,0.6,31.0838,M,7.094,M,0.3,0004*71
14:31:44.6 $GPGGA,063144.40,3015.6998848,N,12007.0310955,E,5,19,0.6,31.1061,M,7.094,M,0.4,0004*74
14:31:45.7 $GPGGA,063144.40,3015.6998848,N,12007.0310955,E,5,19,0.6,31.1061,M,7.094,M,0.5,0004*75
14:31:45.7 $GPGGA,063144.60,3015.6998866,N,12007.0310980,E,5,20,0.6,31.1094,M,7.094,M,0.6,0004*70
14:31:45.7 $GPGGA,063144.60,3015.6998866,N,12007.0310980,E,5,20,0.6,31.1094,M,7.094,M,0.7,0004*71
14:31:45.7 $GPGGA,063144.80,3015.6972107,N,12007.0282127,E,1,33,0.5,53.0434,M,7.094,M,,0004*5D
14:31:45.7 $GPGGA,063144.90,3015.6972107,N,12007.0282127,E,1,33,0.5,53.0434,M,7.094,M,,0004*5C
14:31:45.7 $GPGGA,063145.00,3015.6998893,N,12007.0310977,E,5,19,0.5,31.1029,M,7.094,M,1.0,0004*7D
14:31:45.7 $GPGGA,063145.00,3015.6998893,N,12007.0310977,E,5,19,0.5,31.1029,M,7.094,M,0.1,0004*7D
14:31:45.7 $GPGGA,063145.20,3015.6998797,N,12007.0311004,E,5,20,0.5,31.0961,M,7.094,M,0.2,0004*75
14:31:45.7 $GPGGA,063145.20,3015.6998797,N,12007.0311004,E,5,20,0.5,31.0961,M,7.094,M,0.3,0004*74
14:31:46.8 $GPGGA,063145.40,3015.6998746,N,12007.0310999,E,5,21,0.5,31.0906,M,7.094,M,0.4,0004*75
14:31:46.8 $GPGGA,063145.40,3015.6998746,N,12007.0310999,E,5,21,0.5,31.0906,M,7.094,M,0.5,0004*74
14:31:46.8 $GPGGA,063145.60,3015.6998853,N,12007.0310901,E,5,21,0.5,31.0858,M,7.094,M,0.6,0004*75
14:31:46.8 $GPGGA,063145.60,3015.6998853,N,12007.0310901,E,5,21,0.5,31.0858,M,7.094,M,0.7,0004*74
14:31:46.8 $GPGGA,063145.80,3015.6998715,N,12007.0311003,E,5,21,0.5,31.0775,M,7.094,M,0.8,0004*72
14:31:46.8 $GPGGA,063145.80,3015.6998715,N,12007.0311003,E,5,21,0.5,31.0775,M,7.094,M,0.9,0004*73
14:31:46.8 $GPGGA,063146.00,3015.6976740,N,12007.0287002,E,1,34,0.5,53.3192,M,7.094,M,,0004*58
14:31:46.8 $GPGGA,063146.10,3015.6976740,N,12007.0287002,E,1,33,0.5,53.3192,M,7.094,M,,0004*5E
14:31:46.8 $GPGGA,063146.20,3015.6998741,N,12007.0311014,E,5,20,0.5,31.0840,M,7.094,M,0.2,0004*7E
14:31:47.9 $GPGGA,063146.20,3015.6998741,N,12007.0311014,E,5,20,0.5,31.0840,M,7.094,M,0.3,0004*7F
14:31:47.9 $GPGGA,063146.40,3015.6998754,N,12007.0310965,E,5,22,0.5,31.0918,M,7.094,M,0.4,0004*7A
14:31:47.9 $GPGGA,063146.40,3015.6998754,N,12007.0310965,E,5,22,0.5,31.0918,M,7.094,M,0.5,0004*7B
14:31:47.9 $GPGGA,063146.60,3015.6998784,N,12007.0311036,E,5,21,0.5,31.0804,M,7.094,M,0.6,0004*76
14:31:47.9 $GPGGA,063146.60,3015.6998784,N,12007.0311036,E,5,21,0.5,31.0804,M,7.094,M,0.7,0004*77
