14:15:1.9 $GPGGA,061500.80,3015.6992932,N,12007.0310197,E,4,20,0.5,34.9912,M,7.094,M,0.9,0004*7B
14:15:1.9 $GPGGA,061501.00,3015.6992924,N,12007.0310179,E,4,20,0.5,34.9906,M,7.094,M,1.0,0004*78
14:15:1.9 $GPGGA,061501.00,3015.6992924,N,12007.0310179,E,4,20,0.5,34.9906,M,7.094,M,1.1,0004*79
14:15:1.9 $GPGGA,061501.20,3015.6992928,N,12007.0310190,E,4,20,0.5,34.9902,M,7.094,M,1.2,0004*77
14:15:1.9 $GPGGA,061501.20,3015.6992928,N,12007.0310190,E,4,20,0.5,34.9902,M,7.094,M,0.3,0004*77
14:15:1.9 $GPGGA,061501.40,3015.6992929,N,12007.0310204,E,4,20,0.5,34.9834,M,7.094,M,0.4,0004*7D
14:15:1.9 $GPGGA,061501.40,3015.6992929,N,12007.0310204,E,4,20,0.5,34.9834,M,7.094,M,0.5,0004*7C
14:15:2.0 GPGGA,061501.60,3015.6992931,N,12007.0310202,E,4,20,0.5,34.9829,M,7.094,M,0.6,0004*7E
14:15:2.0 $GPGGA,061501.60,3015.6992931,N,12007.0310202,E,4,20,0.5,34.9829,M,7.094,M,0.7,0004*7F
14:15:2.0 $GPGGA,061501.80,3015.6992935,N,12007.0310204,E,4,20,0.5,34.9893,M,7.094,M,0.8,0004*7D
14:15:2.0 $GPGGA,061501.80,3015.6992935,N,12007.0310204,E,4,20,0.5,34.9893,M,7.094,M,0.9,0004*7C
14:15:2.0 $GPGGA,061502.00,3015.6992928,N,12007.0310186,E,4,20,0.5,34.9844,M,7.094,M,1.0,0004*70
14:15:2.0 $GPGGA,061502.00,3015.6992928,N,12007.0310186,E,4,20,0.5,34.9844,M,7.094,M,1.1,0004*71
14:15:2.0 $GPGGA,061502.20,3015.6992929,N,12007.0310199,E,4,20,0.5,34.9886,M,7.094,M,1.2,0004*71
14:15:2.0 $GPGGA,061502.20,3015.6992929,N,12007.0310199,E,4,20,0.5,34.9886,M,7.094,M,0.3,0004*71
14:15:2.0 $GPGGA,061502.40,3015.6992921,N,12007.0310192,E,4,20,0.5,34.9852,M,7.094,M,0.4,0004*7A
14:15:2.0 $GPGGA,061502.40,3015.6992921,N,12007.0310192,E,4,20,0.5,34.9852,M,7.094,M,0.5,0004*7B
14:15:3.0 $GPGGA,061502.60,3015.6992927,N,12007.0310191,E,4,20,0.5,34.9793,M,7.094,M,0.6,0004*7D
14:15:3.0 $GPGGA,061502.60,3015.6992927,N,12007.0310191,E,4,20,0.5,34.9793,M,7.094,M,0.7,0004*7C
14:15:3.0 $GPGGA,061502.80,3015.6992938,N,12007.0310190,E,4,20,0.5,34.9789,M,7.094,M,0.8,0004*79
14:15:3.0 $GPGGA,061502.80,3015.6992938,N,12007.0310190,E,4,20,0.5,34.9789,M,7.094,M,0.9,0004*78
14:15:3.0 $GPGGA,061503.00,3015.6992925,N,12007.0310191,E,4,20,0.5,34.9757,M,7.094,M,1.0,0004*77
14:15:3.0 $GPGGA,061503.00,3015.6992925,N,12007.0310191,E,4,20,0.5,34.9757,M,7.094,M,1.1,0004*76
14:15:3.0 $GPGGA,061503.20,3015.6992918,N,12007.0310213,E,4,20,0.5,34.9905,M,7.094,M,0.2,0004*78
14:15:3.0 $GPGGA,061503.20,3015.6992918,N,12007.0310213,E,4,20,0.5,34.9905,M,7.094,M,0.3,0004*79
14:15:3.0 $GPGGA,061503.40,3015.6992916,N,12007.0310205,E,4,20,0.5,34.9856,M,7.094,M,0.4,0004*76
14:15:4.1 $GPGGA,061503.40,3015.6992916,N,12007.0310205,E,4,20,0.5,34.9856,M,7.094,M,0.5,0004*77
14:15:4.1 $GPGGA,061503.60,3015.6992914,N,12007.0310195,E,4,20,0.5,34.9883,M,7.094,M,0.6,0004*76
14:15:4.1 $GPGGA,061503.60,3015.6992914,N,12007.0310195,E,4,20,0.5,34.9883,M,7.094,M,0.7,0004*77
14:15:4.1 $GPGGA,061503.80,3015.6992903,N,12007.0310180,E,4,20,0.5,34.9885,M,7.094,M,0.8,0004*72
14:15:4.1 $GPGGA,061503.80,3015.6992903,N,12007.0310180,E,4,20,0.5,34.9885,M,7.094,M,0.9,0004*73
14:15:4.1 $GPGGA,061504.00,3015.6992909,N,12007.0310187,E,4,20,0.5,34.9901,M,7.094,M,1.0,0004*74
14:15:4.1 $GPGGA,061504.00,3015.6992909,N,12007.0310187,E,4,20,0.5,34.9901,M,7.094,M,0.1,0004*74
14:15:4.1 $GPGGA,061504.20,3015.6992931,N,12007.0310213,E,4,20,0.5,34.9910,M,7.094,M,0.2,0004*70
14:15:4.1 $GPGGA,061504.20,3015.6992931,N,12007.0310213,E,4,20,0.5,34.9910,M,7.094,M,0.3,0004*71
14:15:5.1 $GPGGA,061504.40,3015.6992914,N,12007.0310195,E,4,20,0.5,34.9907,M,7.094,M,0.4,0004*7C
14:15:5.1 $GPGGA,061504.40,3015.6992914,N,12007.0310195,E,4,20,0.5,34.9907,M,7.094,M,0.5,0004*7D
14:15:5.1 $GPGGA,061504.60,3015.6992917,N,12007.0310198,E,4,20,0.5,34.9901,M,7.094,M,0.6,0004*74
14:15:5.1 $GPGGA,061504.60,3015.6992917,N,12007.0310198,E,4,20,0.5,34.9901,M,7.094,M,0.7,0004*75
14:15:5.1 $GPGGA,061504.80,3015.6992916,N,12007.0310199,E,4,20,0.5,34.9914,M,7.094,M,0.8,0004*70
14:15:5.1 $GPGGA,061504.80,3015.6992916,N,12007.0310199,E,4,20,0.5,34.9914,M,7.094,M,0.9,0004*71
14:15:5.1 $GPGGA,061505.00,3015.6992911,N,12007.0310182,E,4,20,0.5,34.9945,M,7.094,M,1.0,0004*79
14:15:5.1 $GPGGA,061505.00,3015.6992911,N,12007.0310182,E,4,20,0.5,34.9945,M,7.094,M,1.1,0004*78
14:15:5.1 $GPGGA,061505.20,3015.6992945,N,12007.0310220,E,4,20,0.5,34.9859,M,7.094,M,0.2,0004*7E
14:15:6.4 $GPGGA,061505.20,3015.6992945,N,12007.0310220,E,4,20,0.5,34.9859,M,7.094,M,0.3,0004*7F
14:15:6.4 $GPGGA,061505.40,3015.6992947,N,12007.0310210,E,4,21,0.5,34.9848,M,7.094,M,0.4,0004*7E
14:15:6.4 $GPGGA,061505.40,3015.6992947,N,12007.0310210,E,4,21,0.5,34.9848,M,7.094,M,0.5,0004*7F
14:15:6.4 $GPGGA,061505.60,3015.6992943,N,12007.0310197,E,4,21,0.5,34.9768,M,7.094,M,0.6,0004*7B
14:15:6.4 $GPGGA,061505.60,3015.6992943,N,12007.0310197,E,4,21,0.5,34.9768,M,7.094,M,0.7,0004*7A
14:15:6.4 $GPGGA,061505.80,3015.6992955,N,12007.0310203,E,4,21,0.5,34.9777,M,7.094,M,0.8,0004*7C
14:15:6.4 $GPGGA,061505.80,3015.6992955,N,12007.0310203,E,4,21,0.5,34.9777,M,7.094,M,0.9,0004*7D
14:15:6.4 $GPGGA,061506.00,3015.6992938,N,12007.0310187,E,4,21,0.5,34.9792,M,7.094,M,1.0,0004*71
14:15:6.4 $GPGGA,061506.00,3015.6992938,N,12007.0310187,E,4,21,0.5,34.9792,M,7.094,M,1.1,0004*70
14:15:7.5 $GPGGA,061506.20,3015.6992956,N,12007.0310221,E,4,21,0.5,34.9829,M,7.094,M,0.2,0004*78
14:15:7.5 $GPGGA,061506.20,3015.6992956,N,12007.0310221,E,4,21,0.5,34.9829,M,7.094,M,0.3,0004*79
14:15:7.5 $GPGGA,061506.40,3015.6992933,N,12007.0310210,E,4,21,0.5,34.9924,M,7.094,M,0.4,0004*75
14:15:7.5 $GPGGA,061506.40,3015.6992933,N,12007.0310210,E,4,21,0.5,34.9924,M,7.094,M,0.5,0004*74
14:15:7.5 $GPGGA,061506.60,3015.6992929,N,12007.0310203,E,4,21,0.5,34.9923,M,7.094,M,0.6,0004*7B
14:15:7.5 $GPGGA,061506.60,3015.6992929,N,12007.0310203,E,4,21,0.5,34.9923,M,7.094,M,0.7,0004*7A
14:15:7.5 $GPGGA,061506.80,3015.6992916,N,12007.0310198,E,4,21,0.5,34.9916,M,7.094,M,0.8,0004*70
14:15:7.5 $GPGGA,061506.80,3015.6992916,N,12007.0310198,E,4,21,0.5,34.9916,M,7.094,M,0.9,0004*71
14:15:7.5 $GPGGA,061507.00,3015.6992905,N,12007.0310193,E,4,21,0.5,35.0010,M,7.094,M,1.0,0004*7E
14:15:8.1 $GPGGA,061507.00,3015.6992905,N,12007.0310193,E,4,21,0.5,35.0010,M,7.094,M,1.1,0004*7F
14:15:8.1 $GPGGA,061507.20,3015.6992923,N,12007.0310216,E,4,21,0.5,34.9893,M,7.094,M,0.2,0004*7E
14:15:8.1 $GPGGA,061507.20,3015.6992923,N,12007.0310216,E,4,21,0.5,34.9893,M,7.094,M,0.3,0004*7F
14:15:8.1 $GPGGA,061507.40,3015.6992922,N,12007.0310213,E,4,21,0.5,34.9963,M,7.094,M,0.4,0004*74
14:15:8.1 $GPGGA,061507.40,3015.6992922,N,12007.0310213,E,4,21,0.5,34.9963,M,7.094,M,0.5,0004*75
14:15:8.1 $GPGGA,061507.60,3015.6992929,N,12007.0310207,E,4,21,0.5,34.9844,M,7.094,M,0.6,0004*7E
14:15:8.1 $GPGGA,061507.60,3015.6992929,N,12007.0310207,E,4,21,0.5,34.9844,M,7.094,M,0.7,0004*7F
14:15:8.1 $GPGGA,061507.80,3015.6992919,N,12007.0310205,E,4,21,0.5,34.9925,M,7.094,M,0.8,0004*79
14:15:8.1 $GPGGA,061507.80,3015.6992919,N,12007.0310205,E,4,21,0.5,34.9925,M,7.094,M,0.9,0004*78
14:15:8.2 $GPGGA,061508.00,3015.6992910,N,12007.0310196,E,4,21,0.5,34.9949,M,7.094,M,1.0,0004*7D
14:15:8.2 $GPGGA,061508.00,3015.6992910,N,12007.0310196,E,4,21,0.5,34.9949,M,7.094,M,1.1,0004*7C
14:15:8.2 $GPGGA,061508.20,3015.6992933,N,12007.0310215,E,4,21,0.5,34.9915,M,7.094,M,0.2,0004*7C
14:15:8.2 $GPGGA,061508.20,3015.6992933,N,12007.0310215,E,4,21,0.5,34.9915,M,7.094,M,0.3,0004*7D
14:15:8.2 $GPGGA,061508.40,3015.6992925,N,12007.0310207,E,4,21,0.5,34.9925,M,7.094,M,0.4,0004*7B
14:15:8.2 $GPGGA,061508.40,3015.6992925,N,12007.0310207,E,4,21,0.5,34.9925,M,7.094,M,0.5,0004*7A
14:15:8.2 $GPGGA,061508.60,3015.6992935,N,12007.0310200,E,4,21,0.5,34.9903,M,7.094,M,0.6,0004*79
14:15:8.2 $GPGGA,061508.60,3015.6992935,N,12007.0310200,E,4,21,0.5,34.9903,M,7.094,M,0.7,0004*78
14:15:8.2 $GPGGA,061508.80,3015.6992921,N,12007.0310185,E,4,21,0.5,34.9912,M,7.094,M,0.8,0004*72
14:15:9.3 $GPGGA,061508.80,3015.6992921,N,12007.0310185,E,4,21,0.5,34.9912,M,7.094,M,0.9,0004*73
14:15:9.3 $GPGGA,061509.00,3015.6992915,N,12007.0310182,E,4,21,0.5,34.9953,M,7.094,M,1.0,0004*77
14:15:9.3 $GPGGA,061509.00,3015.6992915,N,12007.0310182,E,4,21,0.5,34.9953,M,7.094,M,1.1,0004*76
14:15:9.3 $GPGGA,061509.20,3015.6992929,N,12007.0310215,E,4,21,0.5,34.9885,M,7.094,M,0.2,0004*7E
14:15:9.3 $GPGGA,061509.20,3015.6992929,N,12007.0310215,E,4,21,0.5,34.9885,M,7.094,M,0.3,0004*7F
14:15:9.3 $GPGGA,061509.40,3015.6992933,N,12007.0310201,E,4,21,0.5,34.9825,M,7.094,M,0.4,0004*7A
14:15:9.3 $GPGGA,061509.40,3015.6992933,N,12007.0310201,E,4,21,0.5,34.9825,M,7.094,M,0.5,0004*7B
14:15:9.3 $GPGGA,061509.60,3015.6992940,N,12007.0310193,E,4,21,0.5,34.9753,M,7.094,M,0.6,0004*78
14:15:9.3 $GPGGA,061509.60,3015.6992940,N,12007.0310193,E,4,21,0.5,34.9753,M,7.094,M,0.7,0004*79
14:15:10.4 $GPGGA,061509.80,3015.6992937,N,12007.0310181,E,4,21,0.5,34.9745,M,7.094,M,0.8,0004*7C
14:15:10.4 $GPGGA,061509.80,3015.6992937,N,12007.0310181,E,4,21,0.5,34.9745,M,7.094,M,0.9,0004*7D
14:15:10.4 $GPGGA,061510.00,3015.6992925,N,12007.0310174,E,4,21,0.5,34.9789,M,7.094,M,1.0,0004*7C
14:15:10.4 $GPGGA,061510.00,3015.6992925,N,12007.0310174,E,4,21,0.5,34.9789,M,7.094,M,1.1,0004*7D
14:15:10.4 $GPGGA,061510.20,3015.6992931,N,12007.0310189,E,4,21,0.5,34.9785,M,7.094,M,0.2,0004*76
14:15:10.4 $GPGGA,061510.20,3015.6992931,N,12007.0310189,E,4,21,0.5,34.9785,M,7.094,M,0.3,0004*77
14:15:10.4 $GPGGA,061510.40,3015.6992929,N,12007.0310189,E,4,21,0.5,34.9771,M,7.094,M,0.4,0004*74
14:15:10.4 $GPGGA,061510.40,3015.6992929,N,12007.0310189,E,4,21,0.5,34.9771,M,7.094,M,0.5,0004*75
14:15:10.4 $GPGGA,061510.60,3015.6992919,N,12007.0310183,E,4,21,0.5,34.9743,M,7.094,M,0.6,0004*7C
14:15:11.4 $GPGGA,061510.60,3015.6992919,N,12007.0310183,E,4,21,0.5,34.9743,M,7.094,M,0.7,0004*7D
14:15:11.4 $GPGGA,061510.80,3015.6992915,N,12007.0310177,E,4,21,0.5,34.9750,M,7.094,M,0.8,0004*79
14:15:11.4 $GPGGA,061510.80,3015.6992915,N,12007.0310177,E,4,21,0.5,34.9750,M,7.094,M,0.9,0004*78
14:15:11.4 $GPGGA,061511.00,3015.6992910,N,12007.0310161,E,4,21,0.5,34.9790,M,7.094,M,1.0,0004*77
14:15:11.4 $GPGGA,061511.00,3015.6992910,N,12007.0310161,E,4,21,0.5,34.9790,M,7.094,M,1.1,0004*76
14:15:11.4 $GPGGA,061511.20,3015.6992925,N,12007.0310183,E,4,21,0.5,34.9829,M,7.094,M,0.2,0004*71
14:15:11.4 $GPGGA,061511.20,3015.6992925,N,12007.0310183,E,4,21,0.5,34.9829,M,7.094,M,0.3,0004*70
14:15:11.4 $GPGGA,061511.40,3015.6992930,N,12007.0310182,E,4,21,0.5,34.9780,M,7.094,M,0.4,0004*78
14:15:11.4 $GPGGA,061511.40,3015.6992930,N,12007.0310182,E,4,21,0.5,34.9780,M,7.094,M,0.5,0004*79
14:15:12.5 $GPGGA,061511.60,3015.6992919,N,12007.0310176,E,4,21,0.5,34.9785,M,7.094,M,0.6,0004*7D
14:15:12.5 $GPGGA,061511.60,3015.6992919,N,12007.0310176,E,4,21,0.5,34.9785,M,7.094,M,0.7,0004*7C
14:15:12.5 $GPGGA,061511.80,3015.6992904,N,12007.0310166,E,4,21,0.5,34.9839,M,7.094,M,0.8,0004*78
14:15:12.5 $GPGGA,061511.80,3015.6992904,N,12007.0310166,E,4,21,0.5,34.9839,M,7.094,M,0.9,0004*79
14:15:12.5 $GPGGA,061512.00,3015.6992909,N,12007.0310164,E,4,21,0.5,34.9846,M,7.094,M,1.0,0004*7D
14:15:12.5 $GPGGA,061512.00,3015.6992909,N,12007.0310164,E,4,21,0.5,34.9846,M,7.094,M,0.1,0004*7D
14:15:12.5 $GPGGA,061512.20,3015.6992925,N,12007.0310195,E,4,21,0.5,34.9801,M,7.094,M,0.2,0004*7F
14:15:12.5 $GPGGA,061512.20,3015.6992925,N,12007.0310195,E,4,21,0.5,34.9801,M,7.094,M,0.3,0004*7E
14:15:12.5 $GPGGA,061512.40,3015.6992935,N,12007.0310187,E,4,21,0.5,34.9734,M,7.094,M,0.4,0004*74
14:15:13.6 $GPGGA,061512.40,3015.6992935,N,12007.0310187,E,4,21,0.5,34.9734,M,7.094,M,0.5,0004*75
14:15:13.6 $GPGGA,061512.60,3015.6992925,N,12007.0310174,E,4,21,0.5,34.9779,M,7.094,M,0.6,0004*70
14:15:13.6 $GPGGA,061512.60,3015.6992925,N,12007.0310174,E,4,21,0.5,34.9779,M,7.094,M,0.7,0004*71
14:15:13.6 $GPGGA,061512.80,3015.6992924,N,12007.0310176,E,4,21,0.5,34.9784,M,7.094,M,0.8,0004*71
14:15:13.6 $GPGGA,061512.80,3015.6992924,N,12007.0310176,E,4,21,0.5,34.9784,M,7.094,M,0.9,0004*70
14:15:13.6 $GPGGA,061513.00,3015.6992914,N,12007.0310172,E,4,21,0.5,34.9825,M,7.094,M,1.0,0004*72
14:15:13.6 $GPGGA,061513.00,3015.6992914,N,12007.0310172,E,4,21,0.5,34.9825,M,7.094,M,0.1,0004*72
14:15:13.6 $GPGGA,061513.20,3015.6992915,N,12007.0310194,E,4,21,0.5,34.9807,M,7.094,M,0.2,0004*7A
14:15:13.6 $GPGGA,061513.20,3015.6992915,N,12007.0310194,E,4,21,0.5,34.9807,M,7.094,M,0.3,0004*7B
14:15:14.6 $GPGGA,061513.40,3015.6992907,N,12007.0310188,E,4,21,0.5,34.9812,M,7.094,M,0.4,0004*70
14:15:14.6 $GPGGA,061513.40,3015.6992907,N,12007.0310188,E,4,21,0.5,34.9812,M,7.094,M,0.5,0004*71
14:15:14.6 $GPGGA,061513.60,3015.6992909,N,12007.0310187,E,4,21,0.5,34.9911,M,7.094,M,0.6,0004*73
14:15:14.6 $GPGGA,061513.60,3015.6992909,N,12007.0310187,E,4,21,0.5,34.9911,M,7.094,M,0.7,0004*72
14:15:14.6 $GPGGA,061513.80,3015.6992909,N,12007.0310181,E,4,21,0.5,34.9881,M,7.094,M,0.8,0004*7D
14:15:14.6 $GPGGA,061513.80,3015.6992909,N,12007.0310181,E,4,21,0.5,34.9881,M,7.094,M,0.9,0004*7C
14:15:14.6 $GPGGA,061514.00,3015.6992897,N,12007.0310167,E,4,21,0.5,34.9887,M,7.094,M,1.0,0004*73
14:15:14.6 $GPGGA,061514.00,3015.6992897,N,12007.0310167,E,4,21,0.5,34.9887,M,7.094,M,0.1,0004*73
14:15:14.6 $GPGGA,061514.20,3015.6992917,N,12007.0310183,E,4,21,0.5,34.9821,M,7.094,M,0.2,0004*7D
14:15:15.8 $GPGGA,061514.20,3015.6992917,N,12007.0310183,E,4,21,0.5,34.9821,M,7.094,M,0.3,0004*7C
14:15:15.8 $GPGGA,061514.40,3015.6992921,N,12007.0310180,E,4,21,0.5,34.9799,M,7.094,M,0.4,0004*77
14:15:15.8 $GPGGA,061514.40,3015.6992921,N,12007.0310180,E,4,21,0.5,34.9799,M,7.094,M,0.5,0004*76
14:15:15.8 $GPGGA,061514.60,3015.6992912,N,12007.0310169,E,4,21,0.5,34.9868,M,7.094,M,0.6,0004*71
14:15:15.8 $GPGGA,061514.60,3015.6992912,N,12007.0310169,E,4,21,0.5,34.9868,M,7.094,M,0.7,0004*70
14:15:15.8 $GPGGA,061514.80,3015.6992916,N,12007.0310166,E,4,21,0.5,34.9856,M,7.094,M,0.8,0004*77
14:15:15.8 $GPGGA,061514.80,3015.6992916,N,12007.0310166,E,4,21,0.5,34.9856,M,7.094,M,0.9,0004*76
14:15:15.8 $GPGGA,061515.00,3015.6992914,N,12007.0310156,E,4,21,0.5,34.9807,M,7.094,M,1.0,0004*72
14:15:15.8 $GPGGA,061515.00,3015.6992914,N,12007.0310156,E,4,21,0.5,34.9807,M,7.094,M,1.1,0004*73
14:15:16.9 $GPGGA,061515.20,3015.6992918,N,12007.0310186,E,4,21,0.5,34.9837,M,7.094,M,0.2,0004*71
14:15:16.9 $GPGGA,061515.20,3015.6992918,N,12007.0310186,E,4,21,0.5,34.9837,M,7.094,M,0.3,0004*70
14:15:16.9 $GPGGA,061515.40,3015.6992914,N,12007.0310189,E,4,21,0.5,34.9860,M,7.094,M,0.4,0004*70
14:15:16.9 $GPGGA,061515.40,3015.6992914,N,12007.0310189,E,4,21,0.5,34.9860,M,7.094,M,0.5,0004*71
14:15:16.9 $GPGGA,061515.60,3015.6992907,N,12007.0310179,E,4,21,0.5,34.9875,M,7.094,M,0.6,0004*79
14:15:16.9 $GPGGA,061515.60,3015.6992907,N,12007.0310179,E,4,21,0.5,34.9875,M,7.094,M,0.7,0004*78
14:15:16.9 $GPGGA,061515.80,3015.6992902,N,12007.0310167,E,4,21,0.5,34.9857,M,7.094,M,0.8,0004*73
14:15:16.9 $GPGGA,061515.80,3015.6992902,N,12007.0310167,E,4,21,0.5,34.9857,M,7.094,M,0.9,0004*72
14:15:16.9 $GPGGA,061516.00,3015.6992905,N,12007.0310172,E,4,21,0.5,34.9886,M,7.094,M,1.0,0004*7E
14:15:17.9 $GPGGA,061516.00,3015.6992905,N,12007.0310172,E,4,21,0.5,34.9886,M,7.094,M,1.1,0004*7F
14:15:17.9 $GPGGA,061516.20,3015.6992914,N,12007.0310196,E,4,21,0.5,34.9847,M,7.094,M,0.2,0004*78
14:15:17.9 $GPGGA,061516.20,3015.6992914,N,12007.0310196,E,4,21,0.5,34.9847,M,7.094,M,0.3,0004*79
14:15:17.9 $GPGGA,061516.40,3015.6992908,N,12007.0310185,E,4,21,0.5,34.9850,M,7.094,M,0.4,0004*71
14:15:17.9 $GPGGA,061516.40,3015.6992908,N,12007.0310185,E,4,21,0.5,34.9850,M,7.094,M,0.5,0004*70
14:15:17.9 $GPGGA,061516.60,3015.6992912,N,12007.0310179,E,4,21,0.5,34.9838,M,7.094,M,0.6,0004*77
14:15:17.9 $GPGGA,061516.60,3015.6992912,N,12007.0310179,E,4,21,0.5,34.9838,M,7.094,M,0.7,0004*76
14:15:17.9 $GPGGA,061516.80,3015.6992915,N,12007.0310173,E,4,21,0.5,34.9828,M,7.094,M,0.8,0004*7B
14:15:17.9 $GPGGA,061516.80,3015.6992915,N,12007.0310173,E,4,21,0.5,34.9828,M,7.094,M,0.9,0004*7A
14:15:17.0 $GPGGA,061517.00,3015.6992895,N,12007.0310163,E,4,21,0.5,34.9908,M,7.094,M,1.0,0004*70
14:15:17.0 $GPGGA,061517.00,3015.6992895,N,12007.0310163,E,4,21,0.5,34.9908,M,7.094,M,1.1,0004*71
14:15:17.0 $GPGGA,061517.20,3015.6992892,N,12007.0310183,E,4,21,0.5,34.9987,M,7.094,M,0.2,0004*7F
14:15:17.0 $GPGGA,061517.20,3015.6992892,N,12007.0310183,E,4,21,0.5,34.9987,M,7.094,M,0.3,0004*7E
14:15:17.0 $GPGGA,061517.40,3015.6992892,N,12007.0310181,E,4,21,0.5,34.9984,M,7.094,M,0.4,0004*7E
14:15:17.0 $GPGGA,061517.40,3015.6992892,N,12007.0310181,E,4,21,0.5,34.9984,M,7.094,M,0.5,0004*7F
14:15:17.0 $GPGGA,061517.60,3015.6992893,N,12007.0310180,E,4,21,0.5,34.9930,M,7.094,M,0.6,0004*71
14:15:17.0 $GPGGA,061517.60,3015.6992893,N,12007.0310180,E,4,21,0.5,34.9930,M,7.094,M,0.7,0004*70
14:15:17.0 $GPGGA,061517.80,3015.6992893,N,12007.0310177,E,4,21,0.5,34.9947,M,7.094,M,0.8,0004*79
14:15:18.1 $GPGGA,061517.80,3015.6992893,N,12007.0310177,E,4,21,0.5,34.9947,M,7.094,M,0.9,0004*78
14:15:18.1 $GPGGA,061518.00,3015.6992882,N,12007.0310166,E,4,21,0.5,34.9892,M,7.094,M,1.0,0004*7E
14:15:18.1 $GPGGA,061518.00,3015.6992882,N,12007.0310166,E,4,21,0.5,34.9892,M,7.094,M,0.1,0004*7E
14:15:18.1 $GPGGA,061518.20,3015.6992903,N,12007.0310173,E,4,21,0.5,34.9829,M,7.094,M,0.2,0004*73
14:15:18.1 $GPGGA,061518.20,3015.6992903,N,12007.0310173,E,4,21,0.5,34.9829,M,7.094,M,0.3,0004*72
14:15:18.1 $GPGGA,061518.40,3015.6992901,N,12007.0310166,E,4,21,0.5,34.9864,M,7.094,M,0.4,0004*7C
14:15:18.1 $GPGGA,061518.40,3015.6992901,N,12007.0310166,E,4,21,0.5,34.9864,M,7.094,M,0.5,0004*7D
14:15:18.1 $GPGGA,061518.60,3015.6992905,N,12007.0310164,E,4,21,0.5,34.9817,M,7.094,M,0.6,0004*7E
14:15:18.1 $GPGGA,061518.60,3015.6992905,N,12007.0310164,E,4,21,0.5,34.9817,M,7.094,M,0.7,0004*7F
14:15:19.3 $GPGGA,061518.80,3015.6992900,N,12007.0310164,E,4,21,0.5,34.9840,M,7.094,M,0.8,0004*79
14:15:19.3 $GPGGA,061518.80,3015.6992900,N,12007.0310164,E,4,21,0.5,34.9840,M,7.094,M,0.9,0004*78
14:15:19.3 $GPGGA,061519.00,3015.6992912,N,12007.0310158,E,4,21,0.5,34.9831,M,7.094,M,1.0,0004*73
14:15:19.3 $GPGGA,061519.00,3015.6992912,N,12007.0310158,E,4,21,0.5,34.9831,M,7.094,M,0.1,0004*73
14:15:19.3 $GPGGA,061519.20,3015.6992923,N,12007.0310190,E,4,21,0.5,34.9670,M,7.094,M,0.2,0004*7F
14:15:19.3 $GPGGA,061519.20,3015.6992923,N,12007.0310190,E,4,21,0.5,34.9670,M,7.094,M,0.3,0004*7E
14:15:19.3 $GPGGA,061519.40,3015.6992916,N,12007.0310188,E,4,21,0.5,34.9687,M,7.094,M,0.4,0004*78
14:15:19.3 $GPGGA,061519.40,3015.6992916,N,12007.0310188,E,4,21,0.5,34.9687,M,7.094,M,0.5,0004*79
14:15:19.3 $GPGGA,061519.60,3015.6992913,N,12007.0310173,E,4,21,0.5,34.9720,M,7.094,M,0.6,0004*75
14:15:20.4 $GPGGA,061519.60,3015.6992913,N,12007.0310173,E,4,21,0.5,34.9720,M,7.094,M,0.7,0004*74
14:15:20.4 $GPGGA,061519.80,3015.6992916,N,12007.0310172,E,4,21,0.5,34.9678,M,7.094,M,0.8,0004*7D
14:15:20.4 $GPGGA,061519.80,3015.6992916,N,12007.0310172,E,4,21,0.5,34.9678,M,7.094,M,0.9,0004*7C
14:15:20.4 $GPGGA,061520.00,3015.6992911,N,12007.0310162,E,4,21,0.5,34.9740,M,7.094,M,1.0,0004*7A
14:15:20.4 $GPGGA,061520.00,3015.6992911,N,12007.0310162,E,4,21,0.5,34.9740,M,7.094,M,0.1,0004*7A
14:15:20.4 $GPGGA,061520.20,3015.6992915,N,12007.0310191,E,4,21,0.5,34.9823,M,7.094,M,0.2,0004*79
14:15:20.4 $GPGGA,061520.20,3015.6992915,N,12007.0310191,E,4,21,0.5,34.9823,M,7.094,M,0.3,0004*78
14:15:20.4 $GPGGA,061520.40,3015.6992907,N,12007.0310187,E,4,21,0.5,34.9841,M,7.094,M,0.4,0004*79
14:15:20.4 $GPGGA,061520.40,3015.6992907,N,12007.0310187,E,4,21,0.5,34.9841,M,7.094,M,0.5,0004*78
14:15:21.5 $GPGGA,061520.60,3015.6992923,N,12007.0310189,E,4,21,0.5,34.9777,M,7.094,M,0.6,0004*7B
14:15:21.5 $GPGGA,061520.60,3015.6992923,N,12007.0310189,E,4,21,0.5,34.9777,M,7.094,M,0.7,0004*7A
14:15:21.5 $GPGGA,061520.80,3015.6992911,N,12007.0310175,E,4,21,0.5,34.9836,M,7.094,M,0.8,0004*73
14:15:21.5 $GPGGA,061520.80,3015.6992911,N,12007.0310175,E,4,21,0.5,34.9836,M,7.094,M,0.9,0004*72
14:15:21.5 $GPGGA,061521.00,3015.6992914,N,12007.0310174,E,4,21,0.5,34.9905,M,7.094,M,1.0,0004*76
14:15:21.5 $GPGGA,061521.00,3015.6992914,N,12007.0310174,E,4,21,0.5,34.9905,M,7.094,M,0.1,0004*76
14:15:21.5 $GPGGA,061521.20,3015.6992909,N,12007.0310185,E,4,21,0.5,34.9771,M,7.094,M,0.2,0004*78
14:15:21.5 $GPGGA,061521.20,3015.6992909,N,12007.0310185,E,4,21,0.5,34.9771,M,7.094,M,0.3,0004*79
14:15:21.5 $GPGGA,061521.40,3015.6992903,N,12007.0310168,E,4,21,0.5,34.9742,M,7.094,M,0.4,0004*71
14:15:22.5 $GPGGA,061521.40,3015.6992903,N,12007.0310168,E,4,21,0.5,34.9742,M,7.094,M,0.5,0004*70
14:15:22.5 $GPGGA,061521.60,3015.6992905,N,12007.0310166,E,4,21,0.5,34.9735,M,7.094,M,0.6,0004*79
14:15:22.5 $GPGGA,061521.60,3015.6992905,N,12007.0310166,E,4,21,0.5,34.9735,M,7.094,M,0.7,0004*78
14:15:22.5 $GPGGA,061521.80,3015.6992901,N,12007.0310154,E,4,21,0.5,34.9702,M,7.094,M,0.8,0004*78
14:15:22.5 $GPGGA,061521.80,3015.6992901,N,12007.0310154,E,4,21,0.5,34.9702,M,7.094,M,0.9,0004*79
14:15:22.5 $GPGGA,061522.00,3015.6992896,N,12007.0310149,E,4,21,0.5,34.9713,M,7.094,M,1.0,0004*79
14:15:22.5 $GPGGA,061522.00,3015.6992896,N,12007.0310149,E,4,21,0.5,34.9713,M,7.094,M,1.1,0004*78
14:15:22.5 $GPGGA,061522.20,3015.6992905,N,12007.0310181,E,4,21,0.5,34.9798,M,7.094,M,0.2,0004*74
14:15:22.5 $GPGGA,061522.20,3015.6992905,N,12007.0310181,E,4,21,0.5,34.9798,M,7.094,M,0.3,0004*75
14:15:23.6 $GPGGA,061522.40,3015.6992911,N,12007.0310181,E,4,21,0.5,34.9774,M,7.094,M,0.4,0004*73
14:15:23.6 $GPGGA,061522.40,3015.6992911,N,12007.0310181,E,4,21,0.5,34.9774,M,7.094,M,0.5,0004*72
14:15:23.6 $GPGGA,061522.60,3015.6992906,N,12007.0310187,E,4,21,0.5,34.9811,M,7.094,M,0.6,0004*7F
14:15:23.6 $GPGGA,061522.60,3015.6992906,N,12007.0310187,E,4,21,0.5,34.9811,M,7.094,M,0.7,0004*7E
14:15:23.6 $GPGGA,061522.80,3015.6992915,N,12007.0310172,E,4,21,0.5,34.9801,M,7.094,M,0.8,0004*76
14:15:23.6 $GPGGA,061522.80,3015.6992915,N,12007.0310172,E,4,21,0.5,34.9801,M,7.094,M,0.9,0004*77
14:15:23.6 $GPGGA,061523.00,3015.6992906,N,12007.0310167,E,4,21,0.5,34.9795,M,7.094,M,1.0,0004*72
14:15:23.6 $GPGGA,061523.00,3015.6992906,N,12007.0310167,E,4,21,0.5,34.9795,M,7.094,M,0.1,0004*72
14:15:23.6 $GPGGA,061523.20,3015.6992902,N,12007.0310170,E,4,21,0.5,34.9829,M,7.094,M,0.2,0004*79
14:15:24.8 $GPGGA,061523.20,3015.6992902,N,12007.0310170,E,4,21,0.5,34.9829,M,7.094,M,0.3,0004*78
14:15:24.8 $GPGGA,061523.40,3015.6992908,N,12007.0310168,E,4,21,0.5,34.9848,M,7.094,M,0.4,0004*7D
14:15:24.8 $GPGGA,061523.40,3015.6992908,N,12007.0310168,E,4,21,0.5,34.9848,M,7.094,M,0.5,0004*7C
14:15:24.8 $GPGGA,061523.60,3015.6992896,N,12007.0310166,E,4,21,0.5,34.9931,M,7.094,M,0.6,0004*7A
14:15:24.8 $GPGGA,061523.60,3015.6992896,N,12007.0310166,E,4,21,0.5,34.9931,M,7.094,M,0.7,0004*7B
14:15:24.8 $GPGGA,061523.80,3015.6992897,N,12007.0310150,E,4,21,0.5,34.9876,M,7.094,M,0.8,0004*7C
14:15:24.8 $GPGGA,061523.80,3015.6992897,N,12007.0310150,E,4,21,0.5,34.9876,M,7.094,M,0.9,0004*7D
14:15:24.8 $GPGGA,061524.00,3015.6992892,N,12007.0310147,E,4,21,0.5,34.9922,M,7.094,M,1.0,0004*79
14:15:24.8 $GPGGA,061524.00,3015.6992892,N,12007.0310147,E,4,21,0.5,34.9922,M,7.094,M,0.1,0004*79
14:15:25.9 $GPGGA,061524.20,3015.6992912,N,12007.0310195,E,4,21,0.5,34.9841,M,7.094,M,0.2,0004*7A
14:15:25.9 $GPGGA,061524.20,3015.6992912,N,12007.0310195,E,4,21,0.5,34.9841,M,7.094,M,0.3,0004*7B
14:15:25.9 $GPGGA,061524.40,3015.6992909,N,12007.0310185,E,4,21,0.5,34.9856,M,7.094,M,0.4,0004*77
14:15:25.9 $GPGGA,061524.40,3015.6992909,N,12007.0310185,E,4,21,0.5,34.9856,M,7.094,M,0.5,0004*76
14:15:25.9 $GPGGA,061524.60,3015.6992913,N,12007.0310181,E,4,21,0.5,34.9801,M,7.094,M,0.6,0004*7A
14:15:25.9 $GPGGA,061524.60,3015.6992913,N,12007.0310181,E,4,21,0.5,34.9801,M,7.094,M,0.7,0004*7B
14:15:25.9 $GPGGA,061524.80,3015.6992910,N,12007.0310167,E,4,21,0.5,34.9822,M,7.094,M,0.8,0004*70
14:15:25.9 $GPGGA,061524.80,3015.6992910,N,12007.0310167,E,4,21,0.5,34.9822,M,7.094,M,0.9,0004*71
14:15:25.9 $GPGGA,061525.00,3015.6992906,N,12007.0310166,E,4,21,0.5,34.9799,M,7.094,M,1.0,0004*79
14:15:25.9 $GPGGA,061525.00,3015.6992906,N,12007.0310166,E,4,21,0.5,34.9799,M,7.094,M,0.1,0004*79
14:15:26.0 $GPGGA,061525.20,3015.6992904,N,12007.0310180,E,4,21,0.5,34.9852,M,7.094,M,0.2,0004*7A
14:15:26.0 $GPGGA,061525.20,3015.6992904,N,12007.0310180,E,4,21,0.5,34.9852,M,7.094,M,0.3,0004*7B
14:15:26.0 $GPGGA,061525.40,3015.6992912,N,12007.0310184,E,4,21,0.5,34.9824,M,7.094,M,0.4,0004*78
14:15:26.0 $GPGGA,061525.40,3015.6992912,N,12007.0310184,E,4,21,0.5,34.9824,M,7.094,M,0.5,0004*79
14:15:26.0 $GPGGA,061525.60,3015.6992890,N,12007.0310172,E,4,21,0.5,34.9850,M,7.094,M,0.6,0004*79
14:15:26.0 $GPGGA,061525.60,3015.6992890,N,12007.0310172,E,4,21,0.5,34.9850,M,7.094,M,0.7,0004*78
14:15:26.0 $GPGGA,061525.80,3015.6992893,N,12007.0310169,E,4,21,0.5,34.9789,M,7.094,M,0.8,0004*7B
14:15:26.0 $GPGGA,061525.80,3015.6992893,N,12007.0310169,E,4,21,0.5,34.9789,M,7.094,M,0.9,0004*7A
14:15:26.3 $GPGGA,061526.00,3015.6992901,N,12007.0310161,E,4,21,0.5,34.9739,M,7.094,M,1.0,0004*70
14:15:26.3 $GPGGA,061526.00,3015.6992901,N,12007.0310161,E,4,21,0.5,34.9739,M,7.094,M,0.1,0004*70
14:15:26.3 $GPGGA,061526.20,3015.6992895,N,12007.0310169,E,4,21,0.5,34.9829,M,7.094,M,0.2,0004*7B
14:15:26.3 $GPGGA,061526.20,3015.6992895,N,12007.0310169,E,4,21,0.5,34.9829,M,7.094,M,0.3,0004*7A
14:15:26.3 $GPGGA,061526.40,3015.6992891,N,12007.0310172,E,4,21,0.5,34.9866,M,7.094,M,0.4,0004*7E
14:15:26.3 $GPGGA,061526.40,3015.6992891,N,12007.0310172,E,4,21,0.5,34.9866,M,7.094,M,0.5,0004*7F
14:15:26.3 $GPGGA,061526.60,3015.6992892,N,12007.0310157,E,4,21,0.5,34.9831,M,7.094,M,0.6,0004*78
14:15:26.3 $GPGGA,061526.60,3015.6992892,N,12007.0310157,E,4,21,0.5,34.9831,M,7.094,M,0.7,0004*79
14:15:26.3 $GPGGA,061526.80,3015.6992892,N,12007.0310154,E,4,21,0.5,34.9837,M,7.094,M,0.8,0004*7D
14:15:26.3 $GPGGA,061526.80,3015.6992892,N,12007.0310154,E,4,21,0.5,34.9837,M,7.094,M,0.9,0004*7C
14:15:27.4 $GPGGA,061527.00,3015.6992887,N,12007.0310143,E,4,21,0.5,34.9799,M,7.094,M,1.0,0004*74
14:15:27.4 $GPGGA,061527.00,3015.6992887,N,12007.0310143,E,4,21,0.5,34.9799,M,7.094,M,0.1,0004*74
14:15:27.4 $GPGGA,061527.20,3015.6992906,N,12007.0310177,E,4,21,0.5,34.9858,M,7.094,M,0.2,0004*78
14:15:27.4 $GPGGA,061527.20,3015.6992906,N,12007.0310177,E,4,21,0.5,34.9858,M,7.094,M,0.3,0004*79
14:15:27.4 $GPGGA,061527.40,3015.6992912,N,12007.0310169,E,4,21,0.5,34.9738,M,7.094,M,0.4,0004*7B
14:15:27.4 $GPGGA,061527.40,3015.6992912,N,12007.0310169,E,4,21,0.5,34.9738,M,7.094,M,0.5,0004*7A
14:15:27.4 $GPGGA,061527.60,3015.6992904,N,12007.0310177,E,4,21,0.5,34.9839,M,7.094,M,0.6,0004*7D
14:15:27.4 $GPGGA,061527.60,3015.6992904,N,12007.0310177,E,4,21,0.5,34.9839,M,7.094,M,0.7,0004*7C
14:15:28.5 $GPGGA,061527.80,3015.6992915,N,12007.0310174,E,4,21,0.5,34.9756,M,7.094,M,0.8,0004*78
14:15:28.5 $GPGGA,061527.80,3015.6992915,N,12007.0310174,E,4,21,0.5,34.9756,M,7.094,M,0.9,0004*79
14:15:28.5 $GPGGA,061528.00,3015.6992908,N,12007.0310167,E,4,21,0.5,34.9779,M,7.094,M,1.0,0004*75
14:15:28.5 $GPGGA,061528.00,3015.6992908,N,12007.0310167,E,4,21,0.5,34.9779,M,7.094,M,0.1,0004*75
14:15:28.5 $GPGGA,061528.20,3015.6992909,N,12007.0310190,E,4,21,0.5,34.9810,M,7.094,M,0.2,0004*7D
14:15:28.5 $GPGGA,061528.20,3015.6992909,N,12007.0310190,E,4,21,0.5,34.9810,M,7.094,M,0.3,0004*7C
14:15:28.5 $GPGGA,061528.40,3015.6992893,N,12007.0310178,E,4,21,0.5,34.9866,M,7.094,M,0.4,0004*78
14:15:28.5 $GPGGA,061528.40,3015.6992893,N,12007.0310178,E,4,21,0.5,34.9866,M,7.094,M,0.5,0004*79
14:15:28.5 $GPGGA,061528.60,3015.6992886,N,12007.0310165,E,4,21,0.5,34.9859,M,7.094,M,0.6,0004*7C
14:15:28.5 $GPGGA,061528.60,3015.6992886,N,12007.0310165,E,4,21,0.5,34.9859,M,7.094,M,0.7,0004*7D
14:15:29.5 $GPGGA,061528.80,3015.6992903,N,12007.0310166,E,4,21,0.5,34.9811,M,7.094,M,0.8,0004*7F
14:15:29.5 $GPGGA,061528.80,3015.6992903,N,12007.0310166,E,4,21,0.5,34.9811,M,7.094,M,0.9,0004*7E
14:15:29.5 $GPGGA,061529.00,3015.6992882,N,12007.0310162,E,4,21,0.5,34.9931,M,7.094,M,1.0,0004*70
14:15:29.5 $GPGGA,061529.00,3015.6992882,N,12007.0310162,E,4,21,0.5,34.9931,M,7.094,M,0.1,0004*70
14:15:29.5 $GPGGA,061529.20,3015.6992905,N,12007.0310175,E,4,21,0.5,34.9859,M,7.094,M,0.2,0004*76
14:15:29.5 $GPGGA,061529.20,3015.6992905,N,12007.0310175,E,4,21,0.5,34.9859,M,7.094,M,0.3,0004*77
14:15:29.5 $GPGGA,061529.40,3015.6992906,N,12007.0310182,E,4,21,0.5,34.9867,M,7.094,M,0.4,0004*70
14:15:29.5 $GPGGA,061529.40,3015.6992906,N,12007.0310182,E,4,21,0.5,34.9867,M,7.094,M,0.5,0004*71
14:15:30.6 $GPGGA,061529.60,3015.6992892,N,12007.0310168,E,4,21,0.5,34.9900,M,7.094,M,0.6,0004*78
14:15:30.6 $GPGGA,061529.60,3015.6992892,N,12007.0310168,E,4,21,0.5,34.9900,M,7.094,M,0.7,0004*79
14:15:30.6 $GPGGA,061529.80,3015.6992890,N,12007.0310157,E,4,21,0.5,34.9879,M,7.094,M,0.8,0004*79
14:15:30.6 $GPGGA,061529.80,3015.6992890,N,12007.0310157,E,4,21,0.5,34.9879,M,7.094,M,0.9,0004*78
14:15:30.6 $GPGGA,061530.00,3015.6992893,N,12007.0310146,E,4,21,0.5,34.9784,M,7.094,M,1.0,0004*7E
14:15:30.6 $GPGGA,061530.00,3015.6992893,N,12007.0310146,E,4,21,0.5,34.9784,M,7.094,M,0.1,0004*7E
14:15:30.6 $GPGGA,061530.20,3015.6992892,N,12007.0310164,E,4,21,0.5,34.9786,M,7.094,M,0.2,0004*7C
14:15:30.6 $GPGGA,061530.20,3015.6992892,N,12007.0310164,E,4,21,0.5,34.9786,M,7.094,M,0.3,0004*7D
14:15:30.6 $GPGGA,061530.40,3015.6992907,N,12007.0310157,E,4,21,0.5,34.9731,M,7.094,M,0.4,0004*7D
14:15:30.6 $GPGGA,061530.40,3015.6992907,N,12007.0310157,E,4,21,0.5,34.9731,M,7.094,M,0.5,0004*7C
14:15:31.7 $GPGGA,061530.60,3015.6992899,N,12007.0310158,E,4,21,0.5,34.9718,M,7.094,M,0.6,0004*7F
14:15:31.7 $GPGGA,061530.60,3015.6992899,N,12007.0310158,E,4,21,0.5,34.9718,M,7.094,M,0.7,0004*7E
14:15:31.7 $GPGGA,061530.80,3015.6992889,N,12007.0310151,E,4,21,0.5,34.9787,M,7.094,M,0.8,0004*71
14:15:31.7 $GPGGA,061530.80,3015.6992889,N,12007.0310151,E,4,21,0.5,34.9787,M,7.094,M,0.9,0004*70
14:15:31.7 $GPGGA,061531.00,3015.6992896,N,12007.0310150,E,4,21,0.5,34.9682,M,7.094,M,1.0,0004*7A
14:15:31.7 $GPGGA,061531.00,3015.6992896,N,12007.0310150,E,4,21,0.5,34.9682,M,7.094,M,1.1,0004*7B
14:15:31.7 $GPGGA,061531.20,3015.6992905,N,12007.0310178,E,4,21,0.5,34.9755,M,7.094,M,0.2,0004*71
14:15:31.7 $GPGGA,061531.20,3015.6992905,N,12007.0310178,E,4,21,0.5,34.9755,M,7.094,M,0.3,0004*70
14:15:32.7 $GPGGA,061531.40,3015.6992897,N,12007.0310157,E,4,21,0.5,34.9768,M,7.094,M,0.4,0004*78
14:15:32.7 $GPGGA,061531.40,3015.6992897,N,12007.0310157,E,4,21,0.5,34.9768,M,7.094,M,0.5,0004*79
14:15:32.7 $GPGGA,061531.60,3015.6992894,N,12007.0310162,E,4,21,0.5,34.9801,M,7.094,M,0.6,0004*7D
14:15:32.7 $GPGGA,061531.60,3015.6992894,N,12007.0310162,E,4,21,0.5,34.9801,M,7.094,M,0.7,0004*7C
14:15:32.7 $GPGGA,061531.80,3015.6992906,N,12007.0310162,E,4,21,0.5,34.9765,M,7.094,M,0.8,0004*7A
14:15:32.7 $GPGGA,061531.80,3015.6992906,N,12007.0310162,E,4,21,0.5,34.9765,M,7.094,M,0.9,0004*7B
14:15:32.7 $GPGGA,061532.00,3015.6992908,N,12007.0310151,E,4,21,0.5,34.9762,M,7.094,M,1.0,0004*71
14:15:32.7 $GPGGA,061532.00,3015.6992908,N,12007.0310151,E,4,21,0.5,34.9762,M,7.094,M,1.1,0004*70
14:15:32.7 $GPGGA,061532.20,3015.6992900,N,12007.0310196,E,4,21,0.5,34.9814,M,7.094,M,0.2,0004*7D
14:15:32.7 $GPGGA,061532.20,3015.6992900,N,12007.0310196,E,4,21,0.5,34.9814,M,7.094,M,0.3,0004*7C
14:15:33.8 $GPGGA,061532.40,3015.6992899,N,12007.0310192,E,4,21,0.5,34.9773,M,7.094,M,0.4,0004*76
14:15:33.8 $GPGGA,061532.40,3015.6992899,N,12007.0310192,E,4,21,0.5,34.9773,M,7.094,M,0.5,0004*77
14:15:33.8 $GPGGA,061532.60,3015.6992902,N,12007.0310189,E,4,21,0.5,34.9773,M,7.094,M,0.6,0004*7F
14:15:33.8 $GPGGA,061532.60,3015.6992902,N,12007.0310189,E,4,21,0.5,34.9773,M,7.094,M,0.7,0004*7E
14:15:33.8 $GPGGA,061532.80,3015.6992894,N,12007.0310177,E,4,21,0.5,34.9795,M,7.094,M,0.8,0004*78
14:15:33.8 $GPGGA,061532.80,3015.6992894,N,12007.0310177,E,4,21,0.5,34.9795,M,7.094,M,0.9,0004*79
14:15:33.8 $GPGGA,061533.00,3015.6992878,N,12007.0310165,E,4,21,0.5,34.9802,M,7.094,M,1.0,0004*78
14:15:33.8 $GPGGA,061533.00,3015.6992878,N,12007.0310165,E,4,21,0.5,34.9802,M,7.094,M,1.1,0004*79
14:15:34.9 $GPGGA,061533.20,3015.6992893,N,12007.0310176,E,4,21,0.5,34.9802,M,7.094,M,0.2,0004*7E
14:15:34.9 $GPGGA,061533.20,3015.6992893,N,12007.0310176,E,4,21,0.5,34.9802,M,7.094,M,0.3,0004*7F
14:15:34.9 $GPGGA,061533.40,3015.6992888,N,12007.0310166,E,4,21,0.5,34.9814,M,7.094,M,0.4,0004*72
14:15:34.9 $GPGGA,061533.40,3015.6992888,N,12007.0310166,E,4,21,0.5,34.9814,M,7.094,M,0.5,0004*73
14:15:34.9 $GPGGA,061533.60,3015.6992901,N,12007.0310173,E,4,21,0.5,34.9726,M,7.094,M,0.6,0004*78
14:15:34.9 $GPGGA,061533.60,3015.6992901,N,12007.0310173,E,4,21,0.5,34.9726,M,7.094,M,0.7,0004*79
14:15:34.9 $GPGGA,061533.80,3015.6992897,N,12007.0310157,E,4,21,0.5,34.9732,M,7.094,M,0.8,0004*75
14:15:34.9 $GPGGA,061533.80,3015.6992897,N,12007.0310157,E,4,21,0.5,34.9732,M,7.094,M,0.9,0004*74
14:15:34.9 $GPGGA,061534.00,3015.6992892,N,12007.0310149,E,4,21,0.5,34.9725,M,7.094,M,1.0,0004*7F
14:15:34.9 $GPGGA,061534.00,3015.6992892,N,12007.0310149,E,4,21,0.5,34.9725,M,7.094,M,1.1,0004*7E
14:15:35.0 $GPGGA,061534.20,3015.6992910,N,12007.0310180,E,4,21,0.5,34.9753,M,7.094,M,0.2,0004*71
14:15:35.0 $GPGGA,061534.20,3015.6992910,N,12007.0310180,E,4,21,0.5,34.9753,M,7.094,M,0.3,0004*70
14:15:35.0 $GPGGA,061534.40,3015.6992907,N,12007.0310172,E,4,21,0.5,34.9738,M,7.094,M,0.4,0004*77
14:15:35.0 $GPGGA,061534.40,3015.6992907,N,12007.0310172,E,4,21,0.5,34.9738,M,7.094,M,0.5,0004*76
14:15:35.0 $GPGGA,061534.60,3015.6992915,N,12007.0310164,E,4,21,0.5,34.9693,M,7.094,M,0.6,0004*73
14:15:35.0 $GPGGA,061534.60,3015.6992915,N,12007.0310164,E,4,21,0.5,34.9693,M,7.094,M,0.7,0004*72
14:15:35.0 $GPGGA,061534.80,3015.6992892,N,12007.0310157,E,4,21,0.5,34.9778,M,7.094,M,0.8,0004*79
14:15:35.0 $GPGGA,061534.80,3015.6992892,N,12007.0310157,E,4,21,0.5,34.9778,M,7.094,M,0.9,0004*78
14:15:35.0 $GPGGA,061535.00,3015.6992903,N,12007.0310149,E,4,21,0.5,34.9696,M,7.094,M,1.0,0004*7E
14:15:35.0 $GPGGA,061535.00,3015.6992903,N,12007.0310149,E,4,21,0.5,34.9696,M,7.094,M,1.1,0004*7F
14:15:35.0 $GPGGA,061535.20,3015.6992910,N,12007.0310162,E,4,21,0.5,34.9625,M,7.094,M,0.2,0004*7C
14:15:35.0 $GPGGA,061535.20,3015.6992910,N,12007.0310162,E,4,21,0.5,34.9625,M,7.094,M,0.3,0004*7D
14:15:35.0 $GPGGA,061535.40,3015.6992887,N,12007.0310170,E,4,21,0.5,34.9745,M,7.094,M,0.4,0004*77
14:15:35.0 $GPGGA,061535.40,3015.6992887,N,12007.0310170,E,4,21,0.5,34.9745,M,7.094,M,0.5,0004*76
14:15:35.0 $GPGGA,061535.60,3015.6992885,N,12007.0310160,E,4,21,0.5,34.9702,M,7.094,M,0.6,0004*77
14:15:35.0 $GPGGA,061535.60,3015.6992885,N,12007.0310160,E,4,21,0.5,34.9702,M,7.094,M,0.7,0004*76
14:15:35.0 $GPGGA,061535.80,3015.6992882,N,12007.0310162,E,4,21,0.5,34.9760,M,7.094,M,0.8,0004*76
14:15:35.0 $GPGGA,061535.80,3015.6992882,N,12007.0310162,E,4,21,0.5,34.9760,M,7.094,M,0.9,0004*77
14:15:36.1 $GPGGA,061536.00,3015.6992863,N,12007.0310165,E,4,21,0.5,34.9803,M,7.094,M,1.0,0004*76
14:15:36.1 $GPGGA,061536.00,3015.6992863,N,12007.0310165,E,4,21,0.5,34.9803,M,7.094,M,1.1,0004*77
14:15:36.1 $GPGGA,061536.20,3015.6992885,N,12007.0310189,E,4,21,0.5,34.9817,M,7.094,M,0.2,0004*78
14:15:36.1 $GPGGA,061536.20,3015.6992885,N,12007.0310189,E,4,21,0.5,34.9817,M,7.094,M,0.3,0004*79
14:15:36.1 $GPGGA,061536.40,3015.6992884,N,12007.0310188,E,4,21,0.5,34.9758,M,7.094,M,0.4,0004*7C
14:15:36.1 $GPGGA,061536.40,3015.6992884,N,12007.0310188,E,4,21,0.5,34.9758,M,7.094,M,0.5,0004*7D
14:15:36.1 $GPGGA,061536.60,3015.6992880,N,12007.0310174,E,4,21,0.5,34.9750,M,7.094,M,0.6,0004*73
14:15:36.1 $GPGGA,061536.60,3015.6992880,N,12007.0310174,E,4,21,0.5,34.9750,M,7.094,M,0.7,0004*72
14:15:37.2 $GPGGA,061536.80,3015.6992883,N,12007.0310179,E,4,21,0.5,34.9708,M,7.094,M,0.8,0004*70
14:15:37.2 $GPGGA,061536.80,3015.6992883,N,12007.0310179,E,4,21,0.5,34.9708,M,7.094,M,0.9,0004*71
14:15:37.2 $GPGGA,061537.00,3015.6992882,N,12007.0310180,E,4,21,0.5,34.9795,M,7.094,M,1.0,0004*73
14:15:37.2 $GPGGA,061537.00,3015.6992882,N,12007.0310180,E,4,21,0.5,34.9795,M,7.094,M,1.1,0004*72
14:15:37.2 $GPGGA,061537.20,3015.6992879,N,12007.0310190,E,4,21,0.5,34.9829,M,7.094,M,0.2,0004*7F
14:15:37.2 $GPGGA,061537.20,3015.6992879,N,12007.0310190,E,4,21,0.5,34.9829,M,7.094,M,0.3,0004*7E
14:15:37.2 $GPGGA,061537.40,3015.6992898,N,12007.0310185,E,4,21,0.5,34.9739,M,7.094,M,0.4,0004*7A
14:15:37.2 $GPGGA,061537.40,3015.6992898,N,12007.0310185,E,4,21,0.5,34.9739,M,7.094,M,0.5,0004*7B
14:15:37.2 $GPGGA,061537.60,3015.6992885,N,12007.0310169,E,4,21,0.5,34.9745,M,7.094,M,0.6,0004*7F
14:15:37.2 $GPGGA,061537.60,3015.6992885,N,12007.0310169,E,4,21,0.5,34.9745,M,7.094,M,0.7,0004*7E
14:15:38.3 $GPGGA,061537.80,3015.6992900,N,12007.0310179,E,4,21,0.5,34.9721,M,7.094,M,0.8,0004*70
14:15:38.3 $GPGGA,061537.80,3015.6992900,N,12007.0310179,E,4,21,0.5,34.9721,M,7.094,M,0.9,0004*71
14:15:38.3 $GPGGA,061538.00,3015.6992897,N,12007.0310158,E,4,21,0.5,34.9635,M,7.094,M,1.0,0004*76
14:15:38.3 $GPGGA,061538.00,3015.6992897,N,12007.0310158,E,4,21,0.5,34.9635,M,7.094,M,1.1,0004*77
14:15:38.3 $GPGGA,061538.20,3015.6992910,N,12007.0310188,E,4,21,0.5,34.9661,M,7.094,M,0.2,0004*75
14:15:38.3 $GPGGA,061538.20,3015.6992910,N,12007.0310188,E,4,21,0.5,34.9661,M,7.094,M,0.3,0004*74
14:15:38.3 $GPGGA,061538.40,3015.6992888,N,12007.0310177,E,4,21,0.5,34.9660,M,7.094,M,0.4,0004*74
14:15:38.3 $GPGGA,061538.40,3015.6992888,N,12007.0310177,E,4,21,0.5,34.9660,M,7.094,M,0.5,0004*75
14:15:39.3 $GPGGA,061538.60,3015.6992879,N,12007.0310162,E,4,21,0.5,34.9684,M,7.094,M,0.6,0004*74
14:15:39.3 $GPGGA,061538.60,3015.6992879,N,12007.0310162,E,4,21,0.5,34.9684,M,7.094,M,0.7,0004*75
14:15:39.3 $GPGGA,061538.80,3015.6992887,N,12007.0310166,E,4,21,0.5,34.9826,M,7.094,M,0.8,0004*77
14:15:39.3 $GPGGA,061538.80,3015.6992887,N,12007.0310166,E,4,21,0.5,34.9826,M,7.094,M,0.9,0004*76
14:15:39.3 $GPGGA,061539.00,3015.6992881,N,12007.0310156,E,4,21,0.5,34.9812,M,7.094,M,1.0,0004*75
14:15:39.3 $GPGGA,061539.00,3015.6992881,N,12007.0310156,E,4,21,0.5,34.9812,M,7.094,M,1.1,0004*74
14:15:39.3 $GPGGA,061539.20,3015.6992884,N,12007.0310183,E,4,21,0.5,34.9928,M,7.094,M,0.2,0004*71
14:15:39.3 $GPGGA,061539.20,3015.6992884,N,12007.0310183,E,4,21,0.5,34.9928,M,7.094,M,0.3,0004*70
14:15:39.3 $GPGGA,061539.40,3015.6992894,N,12007.0310178,E,4,21,0.5,34.9887,M,7.094,M,0.4,0004*70
14:15:39.3 $GPGGA,061539.40,3015.6992894,N,12007.0310178,E,4,21,0.5,34.9887,M,7.094,M,0.5,0004*71
14:15:40.4 $GPGGA,061539.60,3015.6992888,N,12007.0310173,E,4,21,0.5,34.9908,M,7.094,M,0.6,0004*70
14:15:40.4 $GPGGA,061539.60,3015.6992888,N,12007.0310173,E,4,21,0.5,34.9908,M,7.094,M,0.7,0004*71
14:15:40.4 $GPGGA,061539.80,3015.6992897,N,12007.0310178,E,4,21,0.5,34.9876,M,7.094,M,0.8,0004*7D
14:15:40.4 $GPGGA,061539.80,3015.6992897,N,12007.0310178,E,4,21,0.5,34.9876,M,7.094,M,0.9,0004*7C
14:15:40.4 $GPGGA,061540.00,3015.6992890,N,12007.0310172,E,4,21,0.5,34.9867,M,7.094,M,1.0,0004*7F
14:15:40.4 $GPGGA,061540.00,3015.6992890,N,12007.0310172,E,4,21,0.5,34.9867,M,7.094,M,1.1,0004*7E
14:15:40.4 $GPGGA,061540.20,3015.6992883,N,12007.0310185,E,4,21,0.5,34.9876,M,7.094,M,0.2,0004*74
14:15:40.4 $GPGGA,061540.20,3015.6992883,N,12007.0310185,E,4,21,0.5,34.9876,M,7.094,M,0.3,0004*75
14:15:41.5 $GPGGA,061540.40,3015.6992889,N,12007.0310188,E,4,21,0.5,34.9847,M,7.094,M,0.4,0004*71
14:15:41.5 $GPGGA,061540.40,3015.6992889,N,12007.0310188,E,4,21,0.5,34.9847,M,7.094,M,0.5,0004*70
14:15:41.5 $GPGGA,061540.60,3015.6992892,N,12007.0310190,E,4,21,0.5,34.9820,M,7.094,M,0.6,0004*73
14:15:41.5 $GPGGA,061540.60,3015.6992892,N,12007.0310190,E,4,21,0.5,34.9820,M,7.094,M,0.7,0004*72
14:15:41.5 $GPGGA,061540.80,3015.6992894,N,12007.0310177,E,4,21,0.5,34.9777,M,7.094,M,0.8,0004*71
14:15:41.5 $GPGGA,061540.80,3015.6992894,N,12007.0310177,E,4,21,0.5,34.9777,M,7.094,M,0.9,0004*70
14:15:41.5 $GPGGA,061541.00,3015.6992878,N,12007.0310173,E,4,21,0.5,34.9902,M,7.094,M,1.0,0004*7B
14:15:41.5 $GPGGA,061541.00,3015.6992878,N,12007.0310173,E,4,21,0.5,34.9902,M,7.094,M,0.1,0004*7B
14:15:41.5 $GPGGA,061541.20,3015.6992910,N,12007.0310178,E,4,21,0.5,34.9839,M,7.094,M,0.2,0004*77
14:15:41.5 $GPGGA,061541.20,3015.6992910,N,12007.0310178,E,4,21,0.5,34.9839,M,7.094,M,0.3,0004*76
14:15:42.6 $GPGGA,061541.40,3015.6992903,N,12007.0310171,E,4,21,0.5,34.9880,M,7.094,M,0.4,0004*7E
14:15:42.6 $GPGGA,061541.40,3015.6992903,N,12007.0310171,E,4,21,0.5,34.9880,M,7.094,M,0.5,0004*7F
14:15:42.6 $GPGGA,061541.60,3015.6992908,N,12007.0310184,E,4,21,0.5,34.9864,M,7.094,M,0.6,0004*75
14:15:42.6 $GPGGA,061541.60,3015.6992908,N,12007.0310184,E,4,21,0.5,34.9864,M,7.094,M,0.7,0004*74
14:15:42.6 $GPGGA,061541.80,3015.6992891,N,12007.0310164,E,4,21,0.5,34.9868,M,7.094,M,0.8,0004*76
14:15:42.6 $GPGGA,061541.80,3015.6992891,N,12007.0310164,E,4,21,0.5,34.9868,M,7.094,M,0.9,0004*77
14:15:42.6 $GPGGA,061542.00,3015.6992895,N,12007.0310166,E,4,21,0.5,34.9897,M,7.094,M,1.0,0004*72
14:15:42.6 $GPGGA,061542.00,3015.6992895,N,12007.0310166,E,4,21,0.5,34.9897,M,7.094,M,1.1,0004*73
14:15:43.7 $GPGGA,061542.20,3015.6992888,N,12007.0310176,E,4,21,0.5,35.0003,M,7.094,M,0.2,0004*73
14:15:43.7 $GPGGA,061542.20,3015.6992888,N,12007.0310176,E,4,21,0.5,35.0003,M,7.094,M,0.3,0004*72
14:15:43.7 $GPGGA,061542.40,3015.6992875,N,12007.0310175,E,4,21,0.5,34.9921,M,7.094,M,0.4,0004*73
14:15:43.7 $GPGGA,061542.40,3015.6992875,N,12007.0310175,E,4,21,0.5,34.9921,M,7.094,M,0.5,0004*72
14:15:43.7 $GPGGA,061542.60,3015.6992873,N,12007.0310164,E,4,21,0.5,34.9995,M,7.094,M,0.6,0004*7A
14:15:43.7 $GPGGA,061542.60,3015.6992873,N,12007.0310164,E,4,21,0.5,34.9995,M,7.094,M,0.7,0004*7B
14:15:43.7 $GPGGA,061542.80,3015.6992860,N,12007.0310158,E,4,21,0.5,34.9978,M,7.094,M,0.8,0004*74
14:15:43.7 $GPGGA,061542.80,3015.6992860,N,12007.0310158,E,4,21,0.5,34.9978,M,7.094,M,0.9,0004*75
14:15:43.7 $GPGGA,061543.00,3015.6992866,N,12007.0310149,E,4,21,0.5,34.9979,M,7.094,M,1.0,0004*73
14:15:43.7 $GPGGA,061543.00,3015.6992866,N,12007.0310149,E,4,21,0.5,34.9979,M,7.094,M,1.1,0004*72
14:15:44.7 $GPGGA,061543.20,3015.6992896,N,12007.0310150,E,4,21,0.5,34.9857,M,7.094,M,0.2,0004*78
14:15:44.7 $GPGGA,061543.20,3015.6992896,N,12007.0310150,E,4,21,0.5,34.9857,M,7.094,M,0.3,0004*79
14:15:44.7 $GPGGA,061543.40,3015.6992889,N,12007.0310148,E,4,21,0.5,34.9920,M,7.094,M,0.4,0004*7E
14:15:44.7 $GPGGA,061543.40,3015.6992889,N,12007.0310148,E,4,21,0.5,34.9920,M,7.094,M,0.5,0004*7F
14:15:44.7 $GPGGA,061543.60,3015.6992889,N,12007.0310151,E,4,21,0.5,34.9909,M,7.094,M,0.6,0004*7D
14:15:44.7 $GPGGA,061543.60,3015.6992889,N,12007.0310151,E,4,21,0.5,34.9909,M,7.094,M,0.7,0004*7C
14:15:44.7 $GPGGA,061543.80,3015.6992894,N,12007.0310160,E,4,21,0.5,34.9935,M,7.094,M,0.8,0004*7C
14:15:44.7 $GPGGA,061543.80,3015.6992894,N,12007.0310160,E,4,21,0.5,34.9935,M,7.094,M,0.9,0004*7D
14:15:44.8 $GPGGA,061544.00,3015.6992884,N,12007.0310146,E,4,21,0.5,34.9981,M,7.094,M,1.0,0004*70
14:15:44.8 $GPGGA,061544.00,3015.6992884,N,12007.0310146,E,4,21,0.5,34.9981,M,7.094,M,0.1,0004*70
14:15:44.8 $GPGGA,061544.20,3015.6992889,N,12007.0310174,E,4,21,0.5,34.9967,M,7.094,M,0.2,0004*75
14:15:44.8 $GPGGA,061544.20,3015.6992889,N,12007.0310174,E,4,21,0.5,34.9967,M,7.094,M,0.3,0004*74
14:15:44.8 $GPGGA,061544.40,3015.6992886,N,12007.0310175,E,4,21,0.5,34.9979,M,7.094,M,0.4,0004*74
14:15:44.8 $GPGGA,061544.40,3015.6992886,N,12007.0310175,E,4,21,0.5,34.9979,M,7.094,M,0.5,0004*75
14:15:44.8 $GPGGA,061544.60,3015.6992879,N,12007.0310157,E,4,21,0.5,34.9990,M,7.094,M,0.6,0004*73
14:15:44.8 $GPGGA,061544.60,3015.6992879,N,12007.0310157,E,4,21,0.5,34.9990,M,7.094,M,0.7,0004*72
14:15:44.8 $GPGGA,061544.80,3015.6992882,N,12007.0310153,E,4,21,0.5,34.9964,M,7.094,M,0.8,0004*78
14:15:44.8 $GPGGA,061544.80,3015.6992882,N,12007.0310153,E,4,21,0.5,34.9964,M,7.094,M,0.9,0004*79
14:15:45.9 $GPGGA,061545.00,3015.6992877,N,12007.0310145,E,4,21,0.5,34.9919,M,7.094,M,1.0,0004*7F
14:15:45.9 $GPGGA,061545.00,3015.6992877,N,12007.0310145,E,4,21,0.5,34.9919,M,7.094,M,1.1,0004*7E
14:15:45.9 $GPGGA,061545.20,3015.6992903,N,12007.0310160,E,4,21,0.5,34.9860,M,7.094,M,0.2,0004*74
14:15:45.9 $GPGGA,061545.20,3015.6992903,N,12007.0310160,E,4,21,0.5,34.9860,M,7.094,M,0.3,0004*75
14:15:45.9 $GPGGA,061545.40,3015.6992891,N,12007.0310159,E,4,21,0.5,34.9915,M,7.094,M,0.4,0004*77
14:15:45.9 $GPGGA,061545.40,3015.6992891,N,12007.0310159,E,4,21,0.5,34.9915,M,7.094,M,0.5,0004*76
14:15:45.9 $GPGGA,061545.60,3015.6992897,N,12007.0310170,E,4,21,0.5,34.9837,M,7.094,M,0.6,0004*7B
14:15:45.9 $GPGGA,061545.60,3015.6992897,N,12007.0310170,E,4,21,0.5,34.9837,M,7.094,M,0.7,0004*7A
14:15:46.0 $GPGGA,061545.80,3015.6992907,N,12007.0310173,E,4,21,0.5,34.9808,M,7.094,M,0.8,0004*7C
14:15:46.0 $GPGGA,061545.80,3015.6992907,N,12007.0310173,E,4,21,0.5,34.9808,M,7.094,M,0.9,0004*7D
14:15:46.0 $GPGGA,061546.00,3015.6992921,N,12007.0310177,E,4,21,0.5,34.9673,M,7.094,M,1.0,0004*7C
14:15:46.0 $GPGGA,061546.00,3015.6992921,N,12007.0310177,E,4,21,0.5,34.9673,M,7.094,M,1.1,0004*7D
14:15:46.0 $GPGGA,061546.20,3015.6992904,N,12007.0310188,E,4,21,0.5,34.9796,M,7.094,M,0.2,0004*70
14:15:46.0 $GPGGA,061546.20,3015.6992904,N,12007.0310188,E,4,21,0.5,34.9796,M,7.094,M,0.3,0004*71
14:15:46.0 $GPGGA,061546.40,3015.6992895,N,12007.0310184,E,4,21,0.5,34.9813,M,7.094,M,0.4,0004*77
14:15:46.0 $GPGGA,061546.40,3015.6992895,N,12007.0310184,E,4,21,0.5,34.9813,M,7.094,M,0.5,0004*76
14:15:46.0 $GPGGA,061546.60,3015.6992898,N,12007.0310175,E,4,21,0.5,34.9842,M,7.094,M,0.6,0004*70
14:15:46.0 $GPGGA,061546.60,3015.6992898,N,12007.0310175,E,4,21,0.5,34.9842,M,7.094,M,0.7,0004*71
14:15:47.1 $GPGGA,061546.80,3015.6992875,N,12007.0310163,E,4,21,0.5,35.0074,M,7.094,M,0.8,0004*71
14:15:47.1 $GPGGA,061546.80,3015.6992875,N,12007.0310163,E,4,21,0.5,35.0074,M,7.094,M,0.9,0004*70
14:15:47.1 $GPGGA,061547.00,3015.6992876,N,12007.0310161,E,4,21,0.5,35.0077,M,7.094,M,1.0,0004*73
14:15:47.1 $GPGGA,061547.00,3015.6992876,N,12007.0310161,E,4,21,0.5,35.0077,M,7.094,M,1.1,0004*72
14:15:47.1 $GPGGA,061547.20,3015.6992877,N,12007.0310162,E,4,21,0.5,35.0035,M,7.094,M,0.2,0004*76
14:15:47.1 $GPGGA,061547.20,3015.6992877,N,12007.0310162,E,4,21,0.5,35.0035,M,7.094,M,0.3,0004*77
14:15:47.1 $GPGGA,061547.40,3015.6992887,N,12007.0310162,E,4,21,0.5,34.9970,M,7.094,M,0.4,0004*79
14:15:47.1 $GPGGA,061547.40,3015.6992887,N,12007.0310162,E,4,21,0.5,34.9970,M,7.094,M,0.5,0004*78
14:15:48.1 $GPGGA,061547.60,3015.6992900,N,12007.0310167,E,4,21,0.5,34.9977,M,7.094,M,0.6,0004*75
14:15:48.1 $GPGGA,061547.60,3015.6992900,N,12007.0310167,E,4,21,0.5,34.9977,M,7.094,M,0.7,0004*74
14:15:48.1 $GPGGA,061547.80,3015.6992900,N,12007.0310162,E,4,21,0.5,35.0040,M,7.094,M,0.8,0004*75
14:15:48.1 $GPGGA,061547.80,3015.6992900,N,12007.0310162,E,4,21,0.5,35.0040,M,7.094,M,0.9,0004*74
14:15:48.1 $GPGGA,061548.00,3015.6992899,N,12007.0310170,E,4,21,0.5,34.9989,M,7.094,M,1.0,0004*7D
14:15:48.1 $GPGGA,061548.00,3015.6992899,N,12007.0310170,E,4,21,0.5,34.9989,M,7.094,M,0.1,0004*7D
14:15:48.1 $GPGGA,061548.20,3015.6992893,N,12007.0310162,E,4,21,0.5,35.0054,M,7.094,M,0.2,0004*74
14:15:48.1 $GPGGA,061548.20,3015.6992893,N,12007.0310162,E,4,21,0.5,35.0054,M,7.094,M,0.3,0004*75
14:15:48.1 $GPGGA,061548.40,3015.6992905,N,12007.0310178,E,4,21,0.5,35.0001,M,7.094,M,0.4,0004*71
14:15:48.1 $GPGGA,061548.40,3015.6992905,N,12007.0310178,E,4,21,0.5,35.0001,M,7.094,M,0.5,0004*70
14:15:49.2 $GPGGA,061548.60,3015.6992888,N,12007.0310161,E,4,21,0.5,35.0070,M,7.094,M,0.6,0004*7B
14:15:49.2 $GPGGA,061548.60,3015.6992888,N,12007.0310161,E,4,21,0.5,35.0070,M,7.094,M,0.7,0004*7A
14:15:49.2 $GPGGA,061548.80,3015.6992878,N,12007.0310169,E,4,21,0.5,35.0097,M,7.094,M,0.8,0004*75
14:15:49.2 $GPGGA,061548.80,3015.6992878,N,12007.0310169,E,4,21,0.5,35.0097,M,7.094,M,0.9,0004*74
14:15:49.2 $GPGGA,061549.00,3015.6992878,N,12007.0310159,E,4,21,0.5,35.0036,M,7.094,M,1.0,0004*7D
14:15:49.2 $GPGGA,061549.00,3015.6992878,N,12007.0310159,E,4,21,0.5,35.0036,M,7.094,M,0.1,0004*7D
14:15:49.2 $GPGGA,061549.20,3015.6992888,N,12007.0310185,E,4,21,0.5,34.9968,M,7.094,M,0.2,0004*78
14:15:49.2 $GPGGA,061549.20,3015.6992888,N,12007.0310185,E,4,21,0.5,34.9968,M,7.094,M,0.3,0004*79
14:15:50.2 $GPGGA,061549.40,3015.6992892,N,12007.0310186,E,4,21,0.5,34.9991,M,7.094,M,0.4,0004*76
14:15:50.2 $GPGGA,061549.40,3015.6992892,N,12007.0310186,E,4,21,0.5,34.9991,M,7.094,M,0.5,0004*77
14:15:50.2 $GPGGA,061549.60,3015.6992902,N,12007.0310206,E,4,21,0.5,34.9854,M,7.094,M,0.6,0004*7D
14:15:50.2 $GPGGA,061549.60,3015.6992902,N,12007.0310206,E,4,21,0.5,34.9854,M,7.094,M,0.7,0004*7C
14:15:50.2 $GPGGA,061549.80,3015.6992928,N,12007.0310203,E,4,21,0.5,34.9739,M,7.094,M,0.8,0004*74
14:15:50.2 $GPGGA,061549.80,3015.6992928,N,12007.0310203,E,4,21,0.5,34.9739,M,7.094,M,0.9,0004*75
14:15:50.2 $GPGGA,061550.00,3015.6992979,N,12007.0310212,E,4,21,0.5,34.9693,M,7.094,M,1.0,0004*78
14:15:50.2 $GPGGA,061550.00,3015.6992979,N,12007.0310212,E,4,21,0.5,34.9693,M,7.094,M,0.1,0004*78
14:15:50.2 $GPGGA,061550.20,3015.6992973,N,12007.0310200,E,4,21,0.5,34.9852,M,7.094,M,0.2,0004*73
14:15:50.2 $GPGGA,061550.20,3015.6992973,N,12007.0310200,E,4,21,0.5,34.9852,M,7.094,M,0.3,0004*72
