14:16:9.0 $GPGGA,061609.00,3015.7009526,N,12007.0308529,E,4,21,0.5,36.0625,M,7.094,M,1.0,0004*7B
14:16:9.0 $GPGGA,061609.00,3015.7009526,N,12007.0308529,E,4,21,0.5,36.0625,M,7.094,M,0.1,0004*7B
14:16:9.0 $GPGGA,061609.20,3015.7010224,N,12007.0309045,E,4,21,0.5,36.0305,M,7.094,M,0.2,0004*7E
14:16:9.0 $GPGGA,061609.20,3015.7010224,N,12007.0309045,E,4,21,0.5,36.0305,M,7.094,M,0.3,0004*7F
14:16:9.0 $GPGGA,061609.40,3015.7010803,N,12007.0309496,E,4,21,0.5,36.0367,M,7.094,M,0.4,0004*7F
14:16:9.0 $GPGGA,061609.40,3015.7010803,N,12007.0309496,E,4,21,0.5,36.0367,M,7.094,M,0.5,0004*7E
14:16:9.0 $GPGGA,061609.60,3015.7011351,N,12007.0310089,E,4,21,0.5,36.0132,M,7.094,M,0.6,0004*72
14:16:10.0 GPGGA,061609.60,3015.7011351,N,12007.0310089,E,4,21,0.5,36.0132,M,7.094,M,0.7,0004*73
14:16:10.0 $GPGGA,061609.80,3015.7011762,N,12007.0310764,E,4,21,0.5,36.0363,M,7.094,M,0.8,0004*74
14:16:10.0 $GPGGA,061609.80,3015.7011762,N,12007.0310764,E,4,21,0.5,36.0363,M,7.094,M,0.9,0004*75
14:16:10.0 $GPGGA,061610.00,3015.7012297,N,12007.0311416,E,4,21,0.5,36.0607,M,7.094,M,1.0,0004*71
14:16:10.0 $GPGGA,061610.00,3015.7012297,N,12007.0311416,E,4,21,0.5,36.0607,M,7.094,M,0.1,0004*71
14:16:10.0 $GPGGA,061610.20,3015.7012861,N,12007.0311993,E,4,21,0.5,36.0705,M,7.094,M,0.2,0004*70
14:16:10.0 $GPGGA,061610.20,3015.7012861,N,12007.0311993,E,4,21,0.5,36.0705,M,7.094,M,0.3,0004*71
14:16:10.0 $GPGGA,061610.40,3015.7013485,N,12007.0312598,E,4,21,0.5,36.0530,M,7.094,M,0.4,0004*77
14:16:10.0 $GPGGA,061610.40,3015.7013485,N,12007.0312598,E,4,21,0.5,36.0530,M,7.094,M,0.5,0004*76
14:16:10.0 $GPGGA,061610.60,3015.7014144,N,12007.0313138,E,4,21,0.5,36.0651,M,7.094,M,0.6,0004*73
14:16:11.1 $GPGGA,061610.60,3015.7014144,N,12007.0313138,E,4,21,0.5,36.0651,M,7.094,M,0.7,0004*72
14:16:11.1 $GPGGA,061610.80,3015.7014841,N,12007.0313749,E,4,21,0.5,36.0737,M,7.094,M,0.8,0004*7E
14:16:11.1 $GPGGA,061610.80,3015.7014841,N,12007.0313749,E,4,21,0.5,36.0737,M,7.094,M,0.9,0004*7F
14:16:11.1 $GPGGA,061611.00,3015.7015368,N,12007.0314418,E,4,21,0.5,36.0642,M,7.094,M,1.0,0004*7C
14:16:11.1 $GPGGA,061611.00,3015.7015368,N,12007.0314418,E,4,21,0.5,36.0642,M,7.094,M,0.1,0004*7C
14:16:11.1 $GPGGA,061611.20,3015.7015885,N,12007.0315308,E,4,21,0.5,36.0623,M,7.094,M,0.2,0004*75
14:16:11.1 $GPGGA,061611.20,3015.7015885,N,12007.0315308,E,4,21,0.5,36.0623,M,7.094,M,0.3,0004*74
14:16:11.1 $GPGGA,061611.40,3015.7016272,N,12007.0316097,E,4,21,0.5,36.0847,M,7.094,M,0.4,0004*7E
14:16:11.1 $GPGGA,061611.40,3015.7016272,N,12007.0316097,E,4,21,0.5,36.0847,M,7.094,M,0.5,0004*7F
14:16:12.2 $GPGGA,061611.60,3015.7016647,N,12007.0316820,E,4,21,0.5,36.1102,M,7.094,M,0.6,0004*71
14:16:12.2 $GPGGA,061611.60,3015.7016647,N,12007.0316820,E,4,21,0.5,36.1102,M,7.094,M,0.7,0004*70
14:16:12.2 $GPGGA,061611.80,3015.7016979,N,12007.0317515,E,4,21,0.5,36.0906,M,7.094,M,0.8,0004*74
14:16:12.2 $GPGGA,061611.80,3015.7016979,N,12007.0317515,E,4,21,0.5,36.0906,M,7.094,M,0.9,0004*75
14:16:12.2 $GPGGA,061612.00,3015.7017366,N,12007.0318305,E,4,21,0.5,36.0890,M,7.094,M,1.0,0004*75
14:16:12.2 $GPGGA,061612.00,3015.7017366,N,12007.0318305,E,4,21,0.5,36.0890,M,7.094,M,1.1,0004*74
14:16:12.2 $GPGGA,061612.20,3015.7017666,N,12007.0319049,E,4,21,0.5,36.0717,M,7.094,M,0.2,0004*7B
14:16:12.2 $GPGGA,061612.20,3015.7017666,N,12007.0319049,E,4,21,0.5,36.0717,M,7.094,M,0.3,0004*7A
14:16:12.2 $GPGGA,061612.40,3015.7017858,N,12007.0319882,E,4,21,0.5,36.0524,M,7.094,M,0.4,0004*75
14:16:13.2 $GPGGA,061612.40,3015.7017858,N,12007.0319882,E,4,21,0.5,36.0524,M,7.094,M,0.5,0004*74
14:16:13.2 $GPGGA,061612.60,3015.7017929,N,12007.0320783,E,4,21,0.5,36.0505,M,7.094,M,0.6,0004*75
14:16:13.2 $GPGGA,061612.60,3015.7017929,N,12007.0320783,E,4,21,0.5,36.0505,M,7.094,M,0.7,0004*74
14:16:13.2 $GPGGA,061612.80,3015.7018049,N,12007.0321692,E,4,21,0.5,36.0755,M,7.094,M,0.8,0004*72
14:16:13.2 $GPGGA,061612.80,3015.7018049,N,12007.0321692,E,4,21,0.5,36.0755,M,7.094,M,0.9,0004*73
14:16:13.2 $GPGGA,061613.00,3015.7018144,N,12007.0322590,E,4,21,0.5,36.0748,M,7.094,M,1.0,0004*70
14:16:13.2 $GPGGA,061613.00,3015.7018144,N,12007.0322590,E,4,21,0.5,36.0748,M,7.094,M,0.1,0004*70
14:16:13.2 $GPGGA,061613.20,3015.7018217,N,12007.0323538,E,4,21,0.5,36.0625,M,7.094,M,0.2,0004*7D
14:16:13.2 $GPGGA,061613.20,3015.7018217,N,12007.0323538,E,4,21,0.5,36.0625,M,7.094,M,0.3,0004*7C
14:16:14.4 $GPGGA,061613.40,3015.7018162,N,12007.0324616,E,4,21,0.5,36.0648,M,7.094,M,0.4,0004*7F
14:16:14.4 $GPGGA,061613.40,3015.7018162,N,12007.0324616,E,4,21,0.5,36.0648,M,7.094,M,0.5,0004*7E
14:16:14.4 $GPGGA,061613.60,3015.7018087,N,12007.0325530,E,4,21,0.5,36.0878,M,7.094,M,0.6,0004*7E
14:16:14.4 $GPGGA,061613.60,3015.7018087,N,12007.0325530,E,4,21,0.5,36.0878,M,7.094,M,0.7,0004*7F
14:16:14.4 $GPGGA,061613.80,3015.7017946,N,12007.0326501,E,4,21,0.5,36.0794,M,7.094,M,0.8,0004*79
14:16:14.4 $GPGGA,061613.80,3015.7017946,N,12007.0326501,E,4,21,0.5,36.0794,M,7.094,M,0.9,0004*78
14:16:14.4 $GPGGA,061614.00,3015.7017721,N,12007.0327458,E,4,21,0.5,36.0819,M,7.094,M,1.0,0004*76
14:16:14.4 $GPGGA,061614.00,3015.7017721,N,12007.0327458,E,4,21,0.5,36.0819,M,7.094,M,0.1,0004*76
14:16:14.4 $GPGGA,061614.20,3015.7017501,N,12007.0328461,E,4,21,0.5,36.0826,M,7.094,M,0.2,0004*7E
14:16:15.4 $GPGGA,061614.20,3015.7017501,N,12007.0328461,E,4,21,0.5,36.0826,M,7.094,M,0.3,0004*7F
14:16:15.4 $GPGGA,061614.40,3015.7017347,N,12007.0329444,E,4,21,0.5,36.0727,M,7.094,M,0.4,0004*72
14:16:15.4 $GPGGA,061614.40,3015.7017347,N,12007.0329444,E,4,21,0.5,36.0727,M,7.094,M,0.5,0004*73
14:16:15.4 $GPGGA,061614.60,3015.7017142,N,12007.0330434,E,4,21,0.5,36.0761,M,7.094,M,0.6,0004*78
14:16:15.4 $GPGGA,061614.60,3015.7017142,N,12007.0330434,E,4,21,0.5,36.0761,M,7.094,M,0.7,0004*79
14:16:15.4 $GPGGA,061614.80,3015.7016889,N,12007.0331395,E,4,21,0.5,36.0586,M,7.094,M,0.8,0004*71
14:16:15.4 $GPGGA,061614.80,3015.7016889,N,12007.0331395,E,4,21,0.5,36.0586,M,7.094,M,0.9,0004*70
14:16:15.4 $GPGGA,061615.00,3015.7016607,N,12007.0332211,E,4,21,0.5,36.0643,M,7.094,M,1.0,0004*7D
14:16:15.4 $GPGGA,061615.00,3015.7016607,N,12007.0332211,E,4,21,0.5,36.0643,M,7.094,M,0.1,0004*7D
14:16:16.5 $GPGGA,061615.20,3015.7016213,N,12007.0333082,E,4,21,0.5,36.0645,M,7.094,M,0.2,0004*72
14:16:16.5 $GPGGA,061615.20,3015.7016213,N,12007.0333082,E,4,21,0.5,36.0645,M,7.094,M,0.3,0004*73
14:16:16.5 $GPGGA,061615.40,3015.7015691,N,12007.0334026,E,4,21,0.5,36.0860,M,7.094,M,0.4,0004*7F
14:16:16.5 $GPGGA,061615.40,3015.7015691,N,12007.0334026,E,4,21,0.5,36.0860,M,7.094,M,0.5,0004*7E
14:16:16.5 $GPGGA,061615.60,3015.7015325,N,12007.0334846,E,4,21,0.5,36.0945,M,7.094,M,0.6,0004*7D
14:16:16.5 $GPGGA,061615.60,3015.7015325,N,12007.0334846,E,4,21,0.5,36.0945,M,7.094,M,0.7,0004*7C
14:16:16.5 $GPGGA,061615.80,3015.7014938,N,12007.0335832,E,4,21,0.5,36.1056,M,7.094,M,0.8,0004*72
14:16:16.5 $GPGGA,061615.80,3015.7014938,N,12007.0335832,E,4,21,0.5,36.1056,M,7.094,M,0.9,0004*73
14:16:16.5 $GPGGA,061616.00,3015.7014533,N,12007.0336727,E,4,21,0.5,36.0780,M,7.094,M,1.0,0004*72
14:16:17.5 $GPGGA,061616.00,3015.7014533,N,12007.0336727,E,4,21,0.5,36.0780,M,7.094,M,1.1,0004*73
14:16:17.5 $GPGGA,061616.20,3015.7014052,N,12007.0337557,E,4,21,0.5,36.1083,M,7.094,M,0.2,0004*70
14:16:17.5 $GPGGA,061616.20,3015.7014052,N,12007.0337557,E,4,21,0.5,36.1083,M,7.094,M,0.3,0004*71
14:16:17.5 $GPGGA,061616.40,3015.7013550,N,12007.0338276,E,4,21,0.5,36.0731,M,7.094,M,0.4,0004*74
14:16:17.5 $GPGGA,061616.40,3015.7013550,N,12007.0338276,E,4,21,0.5,36.0731,M,7.094,M,0.5,0004*75
14:16:17.5 $GPGGA,061616.60,3015.7012786,N,12007.0338943,E,4,21,0.5,36.0457,M,7.094,M,0.6,0004*72
14:16:17.5 $GPGGA,061616.60,3015.7012786,N,12007.0338943,E,4,21,0.5,36.0457,M,7.094,M,0.7,0004*73
14:16:17.5 $GPGGA,061616.80,3015.7012057,N,12007.0339555,E,4,21,0.5,36.0724,M,7.094,M,0.8,0004*74
14:16:17.5 $GPGGA,061616.80,3015.7012057,N,12007.0339555,E,4,21,0.5,36.0724,M,7.094,M,0.9,0004*75
14:16:17.6 $GPGGA,061617.00,3015.7011268,N,12007.0340298,E,4,21,0.5,36.0863,M,7.094,M,1.0,0004*7D
14:16:17.6 $GPGGA,061617.00,3015.7011268,N,12007.0340298,E,4,21,0.5,36.0863,M,7.094,M,0.1,0004*7D
14:16:17.6 $GPGGA,061617.20,3015.7010526,N,12007.0341033,E,4,21,0.5,36.0505,M,7.094,M,0.2,0004*7F
14:16:17.6 $GPGGA,061617.20,3015.7010526,N,12007.0341033,E,4,21,0.5,36.0505,M,7.094,M,0.3,0004*7E
14:16:17.6 $GPGGA,061617.40,3015.7009761,N,12007.0341681,E,4,21,0.5,36.0310,M,7.094,M,0.4,0004*7B
14:16:17.6 $GPGGA,061617.40,3015.7009761,N,12007.0341681,E,4,21,0.5,36.0310,M,7.094,M,0.5,0004*7A
14:16:17.6 $GPGGA,061617.60,3015.7008962,N,12007.0342247,E,4,21,0.5,36.0497,M,7.094,M,0.6,0004*72
14:16:17.6 $GPGGA,061617.60,3015.7008962,N,12007.0342247,E,4,21,0.5,36.0497,M,7.094,M,0.7,0004*73
14:16:17.6 $GPGGA,061617.80,3015.7008202,N,12007.0342804,E,4,21,0.5,36.0321,M,7.094,M,0.8,0004*78
14:16:18.8 $GPGGA,061617.80,3015.7008202,N,12007.0342804,E,4,21,0.5,36.0321,M,7.094,M,0.9,0004*79
14:16:18.8 $GPGGA,061618.00,3015.7007304,N,12007.0343403,E,4,21,0.5,36.0200,M,7.094,M,1.0,0004*76
14:16:18.8 $GPGGA,061618.00,3015.7007304,N,12007.0343403,E,4,21,0.5,36.0200,M,7.094,M,0.1,0004*76
14:16:18.8 $GPGGA,061618.20,3015.7006450,N,12007.0343895,E,4,21,0.5,36.0207,M,7.094,M,0.2,0004*74
14:16:18.8 $GPGGA,061618.20,3015.7006450,N,12007.0343895,E,4,21,0.5,36.0207,M,7.094,M,0.3,0004*75
14:16:18.8 $GPGGA,061618.40,3015.7005661,N,12007.0344431,E,4,21,0.5,36.0467,M,7.094,M,0.4,0004*72
14:16:18.8 $GPGGA,061618.40,3015.7005661,N,12007.0344431,E,4,21,0.5,36.0467,M,7.094,M,0.5,0004*73
14:16:18.8 $GPGGA,061618.60,3015.7004800,N,12007.0344921,E,4,21,0.5,36.0180,M,7.094,M,0.6,0004*7A
14:16:18.8 $GPGGA,061618.60,3015.7004800,N,12007.0344921,E,4,21,0.5,36.0180,M,7.094,M,0.7,0004*7B
14:16:19.8 $GPGGA,061618.80,3015.7003979,N,12007.0345401,E,4,21,0.5,36.0180,M,7.094,M,0.8,0004*7C
14:16:19.8 $GPGGA,061618.80,3015.7003979,N,12007.0345401,E,4,21,0.5,36.0180,M,7.094,M,0.9,0004*7D
14:16:19.8 $GPGGA,061619.00,3015.7003138,N,12007.0345861,E,4,21,0.5,36.0439,M,7.094,M,1.0,0004*7C
14:16:19.8 $GPGGA,061619.00,3015.7003138,N,12007.0345861,E,4,21,0.5,36.0439,M,7.094,M,0.1,0004*7C
14:16:19.8 $GPGGA,061619.20,3015.7002263,N,12007.0346362,E,4,21,0.5,36.0368,M,7.094,M,0.2,0004*79
14:16:19.8 $GPGGA,061619.20,3015.7002263,N,12007.0346362,E,4,21,0.5,36.0368,M,7.094,M,0.3,0004*78
14:16:19.8 $GPGGA,061619.40,3015.7001315,N,12007.0346801,E,4,21,0.5,36.0130,M,7.094,M,0.4,0004*7B
14:16:19.8 $GPGGA,061619.40,3015.7001315,N,12007.0346801,E,4,21,0.5,36.0130,M,7.094,M,0.5,0004*7A
14:16:19.8 $GPGGA,061619.60,3015.7000367,N,12007.0347182,E,4,21,0.5,36.0287,M,7.094,M,0.6,0004*73
14:16:20.9 $GPGGA,061619.60,3015.7000367,N,12007.0347182,E,4,21,0.5,36.0287,M,7.094,M,0.7,0004*72
14:16:20.9 $GPGGA,061619.80,3015.6999467,N,12007.0347604,E,4,21,0.5,36.0384,M,7.094,M,0.8,0004*77
14:16:20.9 $GPGGA,061619.80,3015.6999467,N,12007.0347604,E,4,21,0.5,36.0384,M,7.094,M,0.9,0004*76
14:16:20.9 $GPGGA,061620.00,3015.6998558,N,12007.0348007,E,4,21,0.5,36.0089,M,7.094,M,1.0,0004*74
14:16:20.9 $GPGGA,061620.00,3015.6998558,N,12007.0348007,E,4,21,0.5,36.0089,M,7.094,M,0.1,0004*74
14:16:20.9 $GPGGA,061620.20,3015.6997663,N,12007.0348196,E,4,21,0.5,36.0109,M,7.094,M,0.2,0004*71
14:16:20.9 $GPGGA,061620.20,3015.6997663,N,12007.0348196,E,4,21,0.5,36.0109,M,7.094,M,0.3,0004*70
14:16:20.9 $GPGGA,061620.40,3015.6996755,N,12007.0348390,E,4,21,0.5,36.0171,M,7.094,M,0.4,0004*7F
14:16:20.9 $GPGGA,061620.40,3015.6996755,N,12007.0348390,E,4,21,0.5,36.0171,M,7.094,M,0.5,0004*7E
14:16:21.0 $GPGGA,061620.60,3015.6995749,N,12007.0348587,E,4,21,0.5,36.0038,M,7.094,M,0.6,0004*7D
14:16:21.0 $GPGGA,061620.60,3015.6995749,N,12007.0348587,E,4,21,0.5,36.0038,M,7.094,M,0.7,0004*7C
14:16:21.0 $GPGGA,061620.80,3015.6994805,N,12007.0348704,E,4,21,0.5,35.9852,M,7.094,M,0.8,0004*7C
14:16:21.0 $GPGGA,061620.80,3015.6994805,N,12007.0348704,E,4,21,0.5,35.9852,M,7.094,M,0.9,0004*7D
14:16:21.0 $GPGGA,061621.00,3015.6993767,N,12007.0349017,E,4,21,0.5,36.0135,M,7.094,M,1.0,0004*76
14:16:21.0 $GPGGA,061621.00,3015.6993767,N,12007.0349017,E,4,21,0.5,36.0135,M,7.094,M,1.1,0004*77
14:16:21.0 $GPGGA,061621.20,3015.6992745,N,12007.0349444,E,4,21,0.5,36.0066,M,7.094,M,0.2,0004*73
14:16:21.0 $GPGGA,061621.20,3015.6992745,N,12007.0349444,E,4,21,0.5,36.0066,M,7.094,M,0.3,0004*72
14:16:21.0 $GPGGA,061621.40,3015.6991753,N,12007.0349918,E,4,21,0.5,35.9920,M,7.094,M,0.4,0004*72
14:16:22.0 $GPGGA,061621.40,3015.6991753,N,12007.0349918,E,4,21,0.5,35.9920,M,7.094,M,0.5,0004*73
14:16:22.0 $GPGGA,061621.60,3015.6990726,N,12007.0350304,E,4,21,0.5,35.9872,M,7.094,M,0.6,0004*78
14:16:22.0 $GPGGA,061621.60,3015.6990726,N,12007.0350304,E,4,21,0.5,35.9872,M,7.094,M,0.7,0004*79
14:16:22.0 $GPGGA,061621.80,3015.6989630,N,12007.0350751,E,4,21,0.5,35.9964,M,7.094,M,0.8,0004*74
14:16:22.0 $GPGGA,061621.80,3015.6989630,N,12007.0350751,E,4,21,0.5,35.9964,M,7.094,M,0.9,0004*75
14:16:22.0 $GPGGA,061622.00,3015.6988618,N,12007.0351111,E,4,21,0.5,35.9917,M,7.094,M,1.0,0004*7A
14:16:22.0 $GPGGA,061622.00,3015.6988618,N,12007.0351111,E,4,21,0.5,35.9917,M,7.094,M,1.1,0004*7B
14:16:22.0 $GPGGA,061622.20,3015.6987597,N,12007.0351421,E,4,21,0.5,36.0046,M,7.094,M,0.2,0004*71
14:16:22.0 $GPGGA,061622.20,3015.6987597,N,12007.0351421,E,4,21,0.5,36.0046,M,7.094,M,0.3,0004*70
14:16:23.2 $GPGGA,061622.40,3015.6986509,N,12007.0351914,E,4,21,0.5,35.9884,M,7.094,M,0.4,0004*70
14:16:23.2 $GPGGA,061622.40,3015.6986509,N,12007.0351914,E,4,21,0.5,35.9884,M,7.094,M,0.5,0004*71
14:16:23.2 $GPGGA,061622.60,3015.6985517,N,12007.0352384,E,4,21,0.5,35.9455,M,7.094,M,0.6,0004*7C
14:16:23.2 $GPGGA,061622.60,3015.6985517,N,12007.0352384,E,4,21,0.5,35.9455,M,7.094,M,0.7,0004*7D
14:16:23.2 $GPGGA,061622.80,3015.6984442,N,12007.0352702,E,4,21,0.5,35.9701,M,7.094,M,0.8,0004*74
14:16:23.2 $GPGGA,061622.80,3015.6984442,N,12007.0352702,E,4,21,0.5,35.9701,M,7.094,M,0.9,0004*75
14:16:23.2 $GPGGA,061623.00,3015.6983517,N,12007.0353021,E,4,21,0.5,35.9747,M,7.094,M,1.0,0004*77
14:16:23.2 $GPGGA,061623.00,3015.6983517,N,12007.0353021,E,4,21,0.5,35.9747,M,7.094,M,0.1,0004*77
14:16:23.2 $GPGGA,061623.20,3015.6982453,N,12007.0353234,E,4,21,0.5,35.9673,M,7.094,M,0.2,0004*76
14:16:24.2 $GPGGA,061623.20,3015.6982453,N,12007.0353234,E,4,21,0.5,35.9673,M,7.094,M,0.3,0004*77
14:16:24.2 $GPGGA,061623.40,3015.6981290,N,12007.0353394,E,4,21,0.5,35.9807,M,7.094,M,0.4,0004*7A
14:16:24.2 $GPGGA,061623.40,3015.6981290,N,12007.0353394,E,4,21,0.5,35.9807,M,7.094,M,0.5,0004*7B
14:16:24.2 $GPGGA,061623.60,3015.6980233,N,12007.0353660,E,4,21,0.5,35.9983,M,7.094,M,0.6,0004*71
14:16:24.2 $GPGGA,061623.60,3015.6980233,N,12007.0353660,E,4,21,0.5,35.9983,M,7.094,M,0.7,0004*70
14:16:24.2 $GPGGA,061623.80,3015.6979082,N,12007.0354085,E,4,21,0.5,35.9776,M,7.094,M,0.8,0004*71
14:16:24.2 $GPGGA,061623.80,3015.6979082,N,12007.0354085,E,4,21,0.5,35.9776,M,7.094,M,0.9,0004*70
14:16:24.2 $GPGGA,061624.00,3015.6977993,N,12007.0354240,E,4,21,0.5,35.9464,M,7.094,M,1.0,0004*7B
14:16:24.2 $GPGGA,061624.00,3015.6977993,N,12007.0354240,E,4,21,0.5,35.9464,M,7.094,M,0.1,0004*7B
14:16:25.3 $GPGGA,061624.20,3015.6977082,N,12007.0354494,E,4,21,0.5,35.9659,M,7.094,M,0.2,0004*70
14:16:25.3 $GPGGA,061624.20,3015.6977082,N,12007.0354494,E,4,21,0.5,35.9659,M,7.094,M,0.3,0004*71
14:16:25.3 $GPGGA,061624.40,3015.6976150,N,12007.0354535,E,4,21,0.5,35.9807,M,7.094,M,0.4,0004*70
14:16:25.3 $GPGGA,061624.40,3015.6976150,N,12007.0354535,E,4,21,0.5,35.9807,M,7.094,M,0.5,0004*71
14:16:25.3 $GPGGA,061624.60,3015.6975107,N,12007.0354330,E,4,21,0.5,35.9856,M,7.094,M,0.6,0004*76
14:16:25.3 $GPGGA,061624.60,3015.6975107,N,12007.0354330,E,4,21,0.5,35.9856,M,7.094,M,0.7,0004*77
14:16:25.3 $GPGGA,061624.80,3015.6973897,N,12007.0354115,E,4,21,0.5,36.0293,M,7.094,M,0.8,0004*7C
14:16:25.3 $GPGGA,061624.80,3015.6973897,N,12007.0354115,E,4,21,0.5,36.0293,M,7.094,M,0.9,0004*7D
14:16:25.3 $GPGGA,061625.00,3015.6972890,N,12007.0353866,E,4,21,0.5,36.0371,M,7.094,M,1.0,0004*7D
14:16:26.4 $GPGGA,061625.00,3015.6972890,N,12007.0353866,E,4,21,0.5,36.0371,M,7.094,M,0.1,0004*7D
14:16:26.4 $GPGGA,061625.20,3015.6971787,N,12007.0353521,E,4,21,0.5,36.0130,M,7.094,M,0.2,0004*7F
14:16:26.4 $GPGGA,061625.20,3015.6971787,N,12007.0353521,E,4,21,0.5,36.0130,M,7.094,M,0.3,0004*7E
14:16:26.4 $GPGGA,061625.40,3015.6970881,N,12007.0353028,E,4,22,0.5,36.0206,M,7.094,M,0.4,0004*7E
14:16:26.4 $GPGGA,061625.40,3015.6970881,N,12007.0353028,E,4,22,0.5,36.0206,M,7.094,M,0.5,0004*7F
14:16:26.4 $GPGGA,061625.60,3015.6970192,N,12007.0352523,E,4,22,0.5,35.9985,M,7.094,M,0.6,0004*70
14:16:26.4 $GPGGA,061625.60,3015.6970192,N,12007.0352523,E,4,22,0.5,35.9985,M,7.094,M,0.7,0004*71
14:16:26.4 $GPGGA,061625.80,3015.6969302,N,12007.0351868,E,4,22,0.5,35.9747,M,7.094,M,0.8,0004*72
14:16:26.4 $GPGGA,061625.80,3015.6969302,N,12007.0351868,E,4,22,0.5,35.9747,M,7.094,M,0.9,0004*73
14:16:26.5 $GPGGA,061626.00,3015.6968476,N,12007.0351277,E,4,22,0.5,36.0068,M,7.094,M,1.0,0004*71
14:16:26.5 $GPGGA,061626.00,3015.6968476,N,12007.0351277,E,4,22,0.5,36.0068,M,7.094,M,0.1,0004*71
14:16:26.5 $GPGGA,061626.20,3015.6967668,N,12007.0350710,E,4,22,0.5,35.9914,M,7.094,M,0.2,0004*7F
14:16:26.5 $GPGGA,061626.20,3015.6967668,N,12007.0350710,E,4,22,0.5,35.9914,M,7.094,M,0.3,0004*7E
14:16:26.5 $GPGGA,061626.40,3015.6966867,N,12007.0350019,E,4,22,0.5,35.9845,M,7.094,M,0.4,0004*74
14:16:26.5 $GPGGA,061626.40,3015.6966867,N,12007.0350019,E,4,22,0.5,35.9845,M,7.094,M,0.5,0004*75
14:16:26.5 $GPGGA,061626.60,3015.6965943,N,12007.0349081,E,4,22,0.5,35.9873,M,7.094,M,0.6,0004*7C
14:16:26.5 $GPGGA,061626.60,3015.6965943,N,12007.0349081,E,4,22,0.5,35.9873,M,7.094,M,0.7,0004*7D
14:16:26.5 $GPGGA,061626.80,3015.6965114,N,12007.0348162,E,4,21,0.5,36.0004,M,7.094,M,0.8,0004*7A
14:16:27.6 $GPGGA,061626.80,3015.6965114,N,12007.0348162,E,4,21,0.5,36.0004,M,7.094,M,0.9,0004*7B
14:16:27.6 $GPGGA,061627.00,3015.6964420,N,12007.0347327,E,4,21,0.5,35.9737,M,7.094,M,1.0,0004*78
14:16:27.6 $GPGGA,061627.00,3015.6964420,N,12007.0347327,E,4,21,0.5,35.9737,M,7.094,M,0.1,0004*78
14:16:27.6 $GPGGA,061627.20,3015.6963607,N,12007.0346372,E,4,21,0.5,35.9847,M,7.094,M,0.2,0004*70
14:16:27.6 $GPGGA,061627.20,3015.6963607,N,12007.0346372,E,4,21,0.5,35.9847,M,7.094,M,0.3,0004*71
14:16:27.6 $GPGGA,061627.40,3015.6962721,N,12007.0345508,E,4,21,0.5,36.0245,M,7.094,M,0.4,0004*7E
14:16:27.6 $GPGGA,061627.40,3015.6962721,N,12007.0345508,E,4,21,0.5,36.0245,M,7.094,M,0.5,0004*7F
14:16:27.6 $GPGGA,061627.60,3015.6961710,N,12007.0344665,E,4,21,0.5,36.0128,M,7.094,M,0.6,0004*7E
14:16:27.6 $GPGGA,061627.60,3015.6961710,N,12007.0344665,E,4,21,0.5,36.0128,M,7.094,M,0.7,0004*7F
14:16:28.6 $GPGGA,061627.80,3015.6960838,N,12007.0343837,E,4,21,0.5,36.0063,M,7.094,M,0.8,0004*7A
14:16:28.6 $GPGGA,061627.80,3015.6960838,N,12007.0343837,E,4,21,0.5,36.0063,M,7.094,M,0.9,0004*7B
14:16:28.6 $GPGGA,061628.00,3015.6959955,N,12007.0342948,E,4,21,0.5,36.0127,M,7.094,M,1.0,0004*7D
14:16:28.6 $GPGGA,061628.00,3015.6959955,N,12007.0342948,E,4,21,0.5,36.0127,M,7.094,M,0.1,0004*7D
14:16:28.6 $GPGGA,061628.20,3015.6959203,N,12007.0342093,E,4,21,0.5,36.0058,M,7.094,M,0.2,0004*72
14:16:28.6 $GPGGA,061628.20,3015.6959203,N,12007.0342093,E,4,21,0.5,36.0058,M,7.094,M,0.3,0004*73
14:16:28.6 $GPGGA,061628.40,3015.6958410,N,12007.0341109,E,4,21,0.5,36.0146,M,7.094,M,0.4,0004*78
14:16:28.6 $GPGGA,061628.40,3015.6958410,N,12007.0341109,E,4,21,0.5,36.0146,M,7.094,M,0.5,0004*79
14:16:28.6 $GPGGA,061628.60,3015.6957511,N,12007.0340217,E,4,21,0.5,36.0281,M,7.094,M,0.6,0004*72
14:16:29.7 $GPGGA,061628.60,3015.6957511,N,12007.0340217,E,4,21,0.5,36.0281,M,7.094,M,0.7,0004*73
14:16:29.7 $GPGGA,061628.80,3015.6956681,N,12007.0339350,E,4,21,0.5,35.9954,M,7.094,M,0.8,0004*7C
14:16:29.7 $GPGGA,061628.80,3015.6956681,N,12007.0339350,E,4,21,0.5,35.9954,M,7.094,M,0.9,0004*7D
14:16:29.7 $GPGGA,061629.00,3015.6955978,N,12007.0338510,E,4,20,0.5,36.0304,M,7.094,M,1.0,0004*71
14:16:29.7 $GPGGA,061629.00,3015.6955978,N,12007.0338510,E,4,20,0.5,36.0304,M,7.094,M,1.1,0004*70
14:16:29.7 $GPGGA,061629.20,3015.6955242,N,12007.0337556,E,4,20,0.5,36.0417,M,7.094,M,0.2,0004*7A
14:16:29.7 $GPGGA,061629.20,3015.6955242,N,12007.0337556,E,4,20,0.5,36.0417,M,7.094,M,0.3,0004*7B
14:16:29.7 $GPGGA,061629.40,3015.6954581,N,12007.0336580,E,4,20,0.5,36.0134,M,7.094,M,0.4,0004*7D
14:16:29.7 $GPGGA,061629.40,3015.6954581,N,12007.0336580,E,4,20,0.5,36.0134,M,7.094,M,0.5,0004*7C
14:16:30.8 $GPGGA,061629.60,3015.6953901,N,12007.0335571,E,4,20,0.5,36.0371,M,7.094,M,0.6,0004*70
14:16:30.8 $GPGGA,061629.60,3015.6953901,N,12007.0335571,E,4,20,0.5,36.0371,M,7.094,M,0.7,0004*71
14:16:30.8 $GPGGA,061629.80,3015.6953216,N,12007.0334614,E,4,21,0.5,36.0435,M,7.094,M,0.8,0004*7A
14:16:30.8 $GPGGA,061629.80,3015.6953216,N,12007.0334614,E,4,21,0.5,36.0435,M,7.094,M,0.9,0004*7B
14:16:30.8 $GPGGA,061630.00,3015.6952387,N,12007.0333614,E,4,21,0.5,36.0026,M,7.094,M,1.0,0004*7A
14:16:30.8 $GPGGA,061630.00,3015.6952387,N,12007.0333614,E,4,21,0.5,36.0026,M,7.094,M,0.1,0004*7A
14:16:30.8 $GPGGA,061630.20,3015.6951513,N,12007.0332589,E,4,21,0.5,35.9852,M,7.094,M,0.2,0004*74
14:16:30.8 $GPGGA,061630.20,3015.6951513,N,12007.0332589,E,4,21,0.5,35.9852,M,7.094,M,0.3,0004*75
14:16:30.8 $GPGGA,061630.40,3015.6950743,N,12007.0331548,E,4,21,0.5,36.0155,M,7.094,M,0.4,0004*78
14:16:31.8 $GPGGA,061630.40,3015.6950743,N,12007.0331548,E,4,21,0.5,36.0155,M,7.094,M,0.5,0004*79
14:16:31.8 $GPGGA,061630.60,3015.6950030,N,12007.0330615,E,4,21,0.5,35.9872,M,7.094,M,0.6,0004*77
14:16:31.8 $GPGGA,061630.60,3015.6950030,N,12007.0330615,E,4,21,0.5,35.9872,M,7.094,M,0.7,0004*76
14:16:31.8 $GPGGA,061630.80,3015.6949367,N,12007.0329710,E,4,21,0.5,35.9747,M,7.094,M,0.8,0004*7B
14:16:31.8 $GPGGA,061630.80,3015.6949367,N,12007.0329710,E,4,21,0.5,35.9747,M,7.094,M,0.9,0004*7A
14:16:31.8 $GPGGA,061631.00,3015.6948737,N,12007.0328675,E,4,21,0.5,36.0132,M,7.094,M,1.0,0004*76
14:16:31.8 $GPGGA,061631.00,3015.6948737,N,12007.0328675,E,4,21,0.5,36.0132,M,7.094,M,1.1,0004*77
14:16:31.8 $GPGGA,061631.20,3015.6948165,N,12007.0327761,E,4,21,0.5,36.0097,M,7.094,M,0.2,0004*73
14:16:31.8 $GPGGA,061631.20,3015.6948165,N,12007.0327761,E,4,21,0.5,36.0097,M,7.094,M,0.3,0004*72
14:16:32.1 $GPGGA,061631.40,3015.6947621,N,12007.0326782,E,4,21,0.5,35.9706,M,7.094,M,0.4,0004*72
14:16:32.1 $GPGGA,061631.40,3015.6947621,N,12007.0326782,E,4,21,0.5,35.9706,M,7.094,M,0.5,0004*73
14:16:32.1 $GPGGA,061631.60,3015.6947059,N,12007.0325736,E,4,21,0.5,35.9891,M,7.094,M,0.6,0004*76
14:16:32.1 $GPGGA,061631.60,3015.6947059,N,12007.0325736,E,4,21,0.5,35.9891,M,7.094,M,0.7,0004*77
14:16:32.1 $GPGGA,061631.80,3015.6946500,N,12007.0324823,E,4,21,0.5,35.9738,M,7.094,M,0.8,0004*78
14:16:32.1 $GPGGA,061631.80,3015.6946500,N,12007.0324823,E,4,21,0.5,35.9738,M,7.094,M,0.9,0004*79
14:16:32.1 $GPGGA,061632.00,3015.6946032,N,12007.0323865,E,4,21,0.5,35.9482,M,7.094,M,1.0,0004*79
14:16:32.1 $GPGGA,061632.00,3015.6946032,N,12007.0323865,E,4,21,0.5,35.9482,M,7.094,M,1.1,0004*78
14:16:32.1 $GPGGA,061632.20,3015.6945557,N,12007.0322911,E,4,21,0.5,36.0051,M,7.094,M,0.2,0004*7E
14:16:33.1 $GPGGA,061632.20,3015.6945557,N,12007.0322911,E,4,21,0.5,36.0051,M,7.094,M,0.3,0004*7F
14:16:33.1 $GPGGA,061632.40,3015.6945051,N,12007.0321984,E,4,21,0.5,36.0248,M,7.094,M,0.4,0004*78
14:16:33.1 $GPGGA,061632.40,3015.6945051,N,12007.0321984,E,4,21,0.5,36.0248,M,7.094,M,0.5,0004*79
14:16:33.1 $GPGGA,061632.60,3015.6944440,N,12007.0320953,E,4,21,0.5,35.9748,M,7.094,M,0.6,0004*79
14:16:33.1 $GPGGA,061632.60,3015.6944440,N,12007.0320953,E,4,21,0.5,35.9748,M,7.094,M,0.7,0004*78
14:16:33.1 $GPGGA,061632.80,3015.6943873,N,12007.0319910,E,4,21,0.5,35.9800,M,7.094,M,0.8,0004*7C
14:16:33.1 $GPGGA,061632.80,3015.6943873,N,12007.0319910,E,4,21,0.5,35.9800,M,7.094,M,0.9,0004*7D
14:16:33.1 $GPGGA,061633.00,3015.6943407,N,12007.0318872,E,4,21,0.5,36.0062,M,7.094,M,1.0,0004*71
14:16:33.1 $GPGGA,061633.00,3015.6943407,N,12007.0318872,E,4,21,0.5,36.0062,M,7.094,M,0.1,0004*71
14:16:34.2 $GPGGA,061633.20,3015.6943016,N,12007.0317882,E,4,21,0.5,36.0132,M,7.094,M,0.2,0004*70
14:16:34.2 $GPGGA,061633.20,3015.6943016,N,12007.0317882,E,4,21,0.5,36.0132,M,7.094,M,0.3,0004*71
14:16:34.2 $GPGGA,061633.40,3015.6942641,N,12007.0316702,E,4,21,0.5,36.0063,M,7.094,M,0.4,0004*76
14:16:34.2 $GPGGA,061633.40,3015.6942641,N,12007.0316702,E,4,21,0.5,36.0063,M,7.094,M,0.5,0004*77
14:16:34.2 $GPGGA,061633.60,3015.6942116,N,12007.0315353,E,4,21,0.5,36.0532,M,7.094,M,0.6,0004*71
14:16:34.2 $GPGGA,061633.60,3015.6942116,N,12007.0315353,E,4,21,0.5,36.0532,M,7.094,M,0.7,0004*70
14:16:34.2 $GPGGA,061633.80,3015.6941587,N,12007.0314103,E,4,21,0.5,36.0807,M,7.094,M,0.8,0004*73
14:16:34.2 $GPGGA,061633.80,3015.6941587,N,12007.0314103,E,4,21,0.5,36.0807,M,7.094,M,0.9,0004*72
14:16:34.2 $GPGGA,061634.00,3015.6941074,N,12007.0313074,E,4,21,0.5,36.0903,M,7.094,M,1.0,0004*7F
14:16:35.3 $GPGGA,061634.00,3015.6941074,N,12007.0313074,E,4,21,0.5,36.0903,M,7.094,M,0.1,0004*7F
14:16:35.3 $GPGGA,061634.20,3015.6940589,N,12007.0311908,E,4,21,0.5,36.1333,M,7.094,M,0.2,0004*70
14:16:35.3 $GPGGA,061634.20,3015.6940589,N,12007.0311908,E,4,21,0.5,36.1333,M,7.094,M,0.3,0004*71
14:16:35.3 $GPGGA,061634.40,3015.6940275,N,12007.0310939,E,4,21,0.5,36.1166,M,7.094,M,0.4,0004*75
14:16:35.3 $GPGGA,061634.40,3015.6940275,N,12007.0310939,E,4,21,0.5,36.1166,M,7.094,M,0.5,0004*74
14:16:35.3 $GPGGA,061634.60,3015.6940087,N,12007.0309842,E,4,21,0.5,36.1092,M,7.094,M,0.6,0004*75
14:16:35.3 $GPGGA,061634.60,3015.6940087,N,12007.0309842,E,4,21,0.5,36.1092,M,7.094,M,0.7,0004*74
14:16:35.3 $GPGGA,061634.80,3015.6939886,N,12007.0308896,E,4,21,0.5,36.1236,M,7.094,M,0.8,0004*76
14:16:35.3 $GPGGA,061634.80,3015.6939886,N,12007.0308896,E,4,21,0.5,36.1236,M,7.094,M,0.9,0004*77
14:16:35.3 $GPGGA,061635.00,3015.6939634,N,12007.0307746,E,4,21,0.5,36.1415,M,7.094,M,1.0,0004*7B
14:16:35.3 $GPGGA,061635.00,3015.6939634,N,12007.0307746,E,4,21,0.5,36.1415,M,7.094,M,1.1,0004*7A
14:16:35.3 $GPGGA,061635.20,3015.6939355,N,12007.0306611,E,4,21,0.5,36.1066,M,7.094,M,0.2,0004*7A
14:16:35.3 $GPGGA,061635.20,3015.6939355,N,12007.0306611,E,4,21,0.5,36.1066,M,7.094,M,0.3,0004*7B
14:16:35.3 $GPGGA,061635.40,3015.6939040,N,12007.0305506,E,4,21,0.5,36.0996,M,7.094,M,0.4,0004*7C
14:16:35.3 $GPGGA,061635.40,3015.6939040,N,12007.0305506,E,4,21,0.5,36.0996,M,7.094,M,0.5,0004*7D
14:16:35.3 $GPGGA,061635.60,3015.6938603,N,12007.0304475,E,4,21,0.5,36.1102,M,7.094,M,0.6,0004*7C
14:16:35.3 $GPGGA,061635.60,3015.6938603,N,12007.0304475,E,4,21,0.5,36.1102,M,7.094,M,0.7,0004*7D
14:16:35.3 $GPGGA,061635.80,3015.6938103,N,12007.0303433,E,4,21,0.5,36.0986,M,7.094,M,0.8,0004*7B
14:16:36.4 $GPGGA,061635.80,3015.6938103,N,12007.0303433,E,4,21,0.5,36.0986,M,7.094,M,0.9,0004*7A
14:16:36.4 $GPGGA,061636.00,3015.6937736,N,12007.0302194,E,4,21,0.5,36.0947,M,7.094,M,1.0,0004*72
14:16:36.4 $GPGGA,061636.00,3015.6937736,N,12007.0302194,E,4,21,0.5,36.0947,M,7.094,M,0.1,0004*72
14:16:36.4 $GPGGA,061636.20,3015.6937363,N,12007.0301107,E,4,21,0.5,36.1300,M,7.094,M,0.2,0004*76
14:16:36.4 $GPGGA,061636.20,3015.6937363,N,12007.0301107,E,4,21,0.5,36.1300,M,7.094,M,0.3,0004*77
14:16:36.4 $GPGGA,061636.40,3015.6936818,N,12007.0299938,E,4,21,0.5,36.1116,M,7.094,M,0.4,0004*71
14:16:36.4 $GPGGA,061636.40,3015.6936818,N,12007.0299938,E,4,21,0.5,36.1116,M,7.094,M,0.5,0004*70
14:16:36.4 $GPGGA,061636.60,3015.6936343,N,12007.0298821,E,4,21,0.5,36.0916,M,7.094,M,0.6,0004*75
14:16:36.4 $GPGGA,061636.60,3015.6936343,N,12007.0298821,E,4,21,0.5,36.0916,M,7.094,M,0.7,0004*74
14:16:37.5 $GPGGA,061636.80,3015.6935989,N,12007.0297681,E,4,21,0.5,36.1159,M,7.094,M,0.8,0004*73
14:16:37.5 $GPGGA,061636.80,3015.6935989,N,12007.0297681,E,4,21,0.5,36.1159,M,7.094,M,0.9,0004*72
14:16:37.5 $GPGGA,061637.00,3015.6935623,N,12007.0296634,E,4,21,0.5,36.1103,M,7.094,M,1.0,0004*7C
14:16:37.5 $GPGGA,061637.00,3015.6935623,N,12007.0296634,E,4,21,0.5,36.1103,M,7.094,M,0.1,0004*7C
14:16:37.5 $GPGGA,061637.20,3015.6935400,N,12007.0295447,E,4,21,0.5,36.0884,M,7.094,M,0.2,0004*7C
14:16:37.5 $GPGGA,061637.20,3015.6935400,N,12007.0295447,E,4,21,0.5,36.0884,M,7.094,M,0.3,0004*7D
14:16:37.5 $GPGGA,061637.40,3015.6935184,N,12007.0294322,E,4,21,0.5,36.1241,M,7.094,M,0.4,0004*72
14:16:37.5 $GPGGA,061637.40,3015.6935184,N,12007.0294322,E,4,21,0.5,36.1241,M,7.094,M,0.5,0004*73
14:16:37.5 $GPGGA,061637.60,3015.6934915,N,12007.0293196,E,4,21,0.5,36.1041,M,7.094,M,0.6,0004*7B
14:16:38.6 $GPGGA,061637.60,3015.6934915,N,12007.0293196,E,4,21,0.5,36.1041,M,7.094,M,0.7,0004*7A
14:16:38.6 $GPGGA,061637.80,3015.6934752,N,12007.0292107,E,4,21,0.5,36.0677,M,7.094,M,0.8,0004*7D
14:16:38.6 $GPGGA,061637.80,3015.6934752,N,12007.0292107,E,4,21,0.5,36.0677,M,7.094,M,0.9,0004*7C
14:16:38.6 $GPGGA,061638.00,3015.6934585,N,12007.0291053,E,4,21,0.5,36.0868,M,7.094,M,1.0,0004*78
14:16:38.6 $GPGGA,061638.00,3015.6934585,N,12007.0291053,E,4,21,0.5,36.0868,M,7.094,M,1.1,0004*79
14:16:38.6 $GPGGA,061638.20,3015.6934472,N,12007.0290028,E,4,21,0.5,36.0950,M,7.094,M,0.2,0004*77
14:16:38.6 $GPGGA,061638.20,3015.6934472,N,12007.0290028,E,4,21,0.5,36.0950,M,7.094,M,0.3,0004*76
14:16:38.6 $GPGGA,061638.40,3015.6934472,N,12007.0288849,E,4,21,0.5,36.0748,M,7.094,M,0.4,0004*76
14:16:38.6 $GPGGA,061638.40,3015.6934472,N,12007.0288849,E,4,21,0.5,36.0748,M,7.094,M,0.5,0004*77
14:16:39.7 $GPGGA,061638.60,3015.6934562,N,12007.0287758,E,4,21,0.5,36.1064,M,7.094,M,0.6,0004*7E
14:16:39.7 $GPGGA,061638.60,3015.6934562,N,12007.0287758,E,4,21,0.5,36.1064,M,7.094,M,0.7,0004*7F
14:16:39.7 $GPGGA,061638.80,3015.6934525,N,12007.0286640,E,4,21,0.5,36.1193,M,7.094,M,0.8,0004*7D
14:16:39.7 $GPGGA,061638.80,3015.6934525,N,12007.0286640,E,4,21,0.5,36.1193,M,7.094,M,0.9,0004*7C
14:16:39.7 $GPGGA,061639.00,3015.6934582,N,12007.0285569,E,4,21,0.5,36.0786,M,7.094,M,1.0,0004*78
14:16:39.7 $GPGGA,061639.00,3015.6934582,N,12007.0285569,E,4,21,0.5,36.0786,M,7.094,M,1.1,0004*79
14:16:39.7 $GPGGA,061639.20,3015.6934792,N,12007.0284487,E,4,21,0.5,36.0662,M,7.094,M,0.2,0004*71
14:16:39.7 $GPGGA,061639.20,3015.6934792,N,12007.0284487,E,4,21,0.5,36.0662,M,7.094,M,0.3,0004*70
14:16:39.7 $GPGGA,061639.40,3015.6934986,N,12007.0283373,E,4,21,0.5,36.0972,M,7.094,M,0.4,0004*7F
14:16:40.7 $GPGGA,061639.40,3015.6934986,N,12007.0283373,E,4,21,0.5,36.0972,M,7.094,M,0.5,0004*7E
14:16:40.7 $GPGGA,061639.60,3015.6935276,N,12007.0282353,E,4,21,0.5,36.0629,M,7.094,M,0.6,0004*78
14:16:40.7 $GPGGA,061639.60,3015.6935276,N,12007.0282353,E,4,21,0.5,36.0629,M,7.094,M,0.7,0004*79
14:16:40.7 $GPGGA,061639.80,3015.6935746,N,12007.0281408,E,4,21,0.5,36.0662,M,7.094,M,0.8,0004*7B
14:16:40.7 $GPGGA,061639.80,3015.6935746,N,12007.0281408,E,4,21,0.5,36.0662,M,7.094,M,0.9,0004*7A
14:16:40.7 $GPGGA,061640.00,3015.6936152,N,12007.0280533,E,4,21,0.5,36.1002,M,7.094,M,1.0,0004*7D
14:16:40.7 $GPGGA,061640.00,3015.6936152,N,12007.0280533,E,4,21,0.5,36.1002,M,7.094,M,1.1,0004*7C
14:16:40.7 $GPGGA,061640.20,3015.6936528,N,12007.0279713,E,4,21,0.5,36.0925,M,7.094,M,0.2,0004*7E
14:16:40.7 $GPGGA,061640.20,3015.6936528,N,12007.0279713,E,4,21,0.5,36.0925,M,7.094,M,0.3,0004*7F
14:16:41.9 $GPGGA,061640.40,3015.6936939,N,12007.0278947,E,4,21,0.5,36.0632,M,7.094,M,0.4,0004*75
14:16:41.9 $GPGGA,061640.40,3015.6936939,N,12007.0278947,E,4,21,0.5,36.0632,M,7.094,M,0.5,0004*74
14:16:41.9 $GPGGA,061640.60,3015.6937340,N,12007.0278363,E,4,21,0.5,36.0870,M,7.094,M,0.6,0004*74
14:16:41.9 $GPGGA,061640.60,3015.6937340,N,12007.0278363,E,4,21,0.5,36.0870,M,7.094,M,0.7,0004*75
14:16:41.9 $GPGGA,061640.80,3015.6937692,N,12007.0277919,E,4,21,0.5,36.0846,M,7.094,M,0.8,0004*73
14:16:41.9 $GPGGA,061640.80,3015.6937692,N,12007.0277919,E,4,21,0.5,36.0846,M,7.094,M,0.9,0004*72
14:16:41.9 $GPGGA,061641.00,3015.6938101,N,12007.0277626,E,4,21,0.5,36.0862,M,7.094,M,1.0,0004*74
14:16:41.9 $GPGGA,061641.00,3015.6938101,N,12007.0277626,E,4,21,0.5,36.0862,M,7.094,M,1.1,0004*75
14:16:41.9 $GPGGA,061641.20,3015.6938299,N,12007.0277537,E,4,21,0.5,36.1142,M,7.094,M,0.2,0004*7E
14:16:42.9 $GPGGA,061641.20,3015.6938299,N,12007.0277537,E,4,21,0.5,36.1142,M,7.094,M,0.3,0004*7F
14:16:42.9 $GPGGA,061641.40,3015.6938258,N,12007.0277397,E,4,21,0.5,36.1275,M,7.094,M,0.4,0004*78
14:16:42.9 $GPGGA,061641.40,3015.6938258,N,12007.0277397,E,4,21,0.5,36.1275,M,7.094,M,0.5,0004*79
14:16:42.9 $GPGGA,061641.60,3015.6937932,N,12007.0277226,E,4,21,0.5,36.1355,M,7.094,M,0.6,0004*78
14:16:42.9 $GPGGA,061641.60,3015.6937932,N,12007.0277226,E,4,21,0.5,36.1355,M,7.094,M,0.7,0004*79
14:16:42.9 $GPGGA,061641.80,3015.6937452,N,12007.0276931,E,4,21,0.5,36.1048,M,7.094,M,0.8,0004*70
14:16:42.9 $GPGGA,061641.80,3015.6937452,N,12007.0276931,E,4,21,0.5,36.1048,M,7.094,M,0.9,0004*71
14:16:42.9 $GPGGA,061642.00,3015.6936949,N,12007.0276723,E,4,21,0.5,36.0794,M,7.094,M,1.0,0004*7E
14:16:42.9 $GPGGA,061642.00,3015.6936949,N,12007.0276723,E,4,21,0.5,36.0794,M,7.094,M,1.1,0004*7F
14:16:43.0 $GPGGA,061642.20,3015.6936353,N,12007.0276616,E,4,21,0.5,36.0455,M,7.094,M,0.2,0004*77
14:16:43.0 $GPGGA,061642.20,3015.6936353,N,12007.0276616,E,4,21,0.5,36.0455,M,7.094,M,0.3,0004*76
14:16:43.0 $GPGGA,061642.40,3015.6935683,N,12007.0276731,E,4,21,0.5,36.0272,M,7.094,M,0.4,0004*7B
14:16:43.0 $GPGGA,061642.40,3015.6935683,N,12007.0276731,E,4,21,0.5,36.0272,M,7.094,M,0.5,0004*7A
14:16:43.0 $GPGGA,061642.60,3015.6934852,N,12007.0276926,E,4,21,0.5,36.0203,M,7.094,M,0.6,0004*76
14:16:43.0 $GPGGA,061642.60,3015.6934852,N,12007.0276926,E,4,21,0.5,36.0203,M,7.094,M,0.7,0004*77
14:16:43.0 $GPGGA,061642.80,3015.6934080,N,12007.0277146,E,4,21,0.5,36.0353,M,7.094,M,0.8,0004*7A
14:16:43.0 $GPGGA,061642.80,3015.6934080,N,12007.0277146,E,4,21,0.5,36.0353,M,7.094,M,0.9,0004*7B
14:16:43.0 $GPGGA,061643.00,3015.6933385,N,12007.0277345,E,4,21,0.5,36.0426,M,7.094,M,1.0,0004*7F
14:16:44.1 $GPGGA,061643.00,3015.6933385,N,12007.0277345,E,4,21,0.5,36.0426,M,7.094,M,1.1,0004*7E
14:16:44.1 $GPGGA,061643.20,3015.6932726,N,12007.0277735,E,4,21,0.5,36.0204,M,7.094,M,0.2,0004*77
14:16:44.1 $GPGGA,061643.20,3015.6932726,N,12007.0277735,E,4,21,0.5,36.0204,M,7.094,M,0.3,0004*76
14:16:44.1 $GPGGA,061643.40,3015.6932071,N,12007.0278233,E,4,21,0.5,36.0297,M,7.094,M,0.4,0004*74
14:16:44.1 $GPGGA,061643.40,3015.6932071,N,12007.0278233,E,4,21,0.5,36.0297,M,7.094,M,0.5,0004*75
14:16:44.1 $GPGGA,061643.60,3015.6931538,N,12007.0278899,E,4,21,0.5,36.0262,M,7.094,M,0.6,0004*7F
14:16:44.1 $GPGGA,061643.60,3015.6931538,N,12007.0278899,E,4,21,0.5,36.0262,M,7.094,M,0.7,0004*7E
14:16:44.1 $GPGGA,061643.80,3015.6930862,N,12007.0279746,E,4,21,0.5,36.0152,M,7.094,M,0.8,0004*70
14:16:44.1 $GPGGA,061643.80,3015.6930862,N,12007.0279746,E,4,21,0.5,36.0152,M,7.094,M,0.9,0004*71
14:16:44.2 $GPGGA,061644.00,3015.6930266,N,12007.0280578,E,4,21,0.5,36.0632,M,7.094,M,1.0,0004*70
14:16:44.2 $GPGGA,061644.00,3015.6930266,N,12007.0280578,E,4,21,0.5,36.0632,M,7.094,M,0.1,0004*70
14:16:44.2 $GPGGA,061644.20,3015.6929826,N,12007.0281443,E,4,21,0.5,36.1397,M,7.094,M,0.2,0004*74
14:16:44.2 $GPGGA,061644.20,3015.6929826,N,12007.0281443,E,4,21,0.5,36.1397,M,7.094,M,0.3,0004*75
14:16:44.2 $GPGGA,061644.40,3015.6929500,N,12007.0282368,E,4,21,0.5,36.1404,M,7.094,M,0.4,0004*7D
14:16:44.2 $GPGGA,061644.40,3015.6929500,N,12007.0282368,E,4,21,0.5,36.1404,M,7.094,M,0.5,0004*7C
14:16:44.2 $GPGGA,061644.60,3015.6929170,N,12007.0283499,E,4,21,0.5,36.1285,M,7.094,M,0.6,0004*79
14:16:44.2 $GPGGA,061644.60,3015.6929170,N,12007.0283499,E,4,21,0.5,36.1285,M,7.094,M,0.7,0004*78
14:16:44.2 $GPGGA,061644.80,3015.6928824,N,12007.0284620,E,4,21,0.5,36.1489,M,7.094,M,0.8,0004*7D
14:16:45.3 $GPGGA,061644.80,3015.6928824,N,12007.0284620,E,4,21,0.5,36.1489,M,7.094,M,0.9,0004*7C
14:16:45.3 $GPGGA,061645.00,3015.6928666,N,12007.0285710,E,4,21,0.5,36.1747,M,7.094,M,1.0,0004*77
14:16:45.3 $GPGGA,061645.00,3015.6928666,N,12007.0285710,E,4,21,0.5,36.1747,M,7.094,M,0.1,0004*77
14:16:45.3 $GPGGA,061645.20,3015.6928539,N,12007.0286944,E,4,21,0.5,36.1902,M,7.094,M,0.2,0004*7C
14:16:45.3 $GPGGA,061645.20,3015.6928539,N,12007.0286944,E,4,21,0.5,36.1902,M,7.094,M,0.3,0004*7D
14:16:45.3 $GPGGA,061645.40,3015.6928424,N,12007.0288085,E,4,20,0.5,36.1941,M,7.094,M,0.4,0004*7D
14:16:45.3 $GPGGA,061645.40,3015.6928424,N,12007.0288085,E,4,20,0.5,36.1941,M,7.094,M,0.5,0004*7C
14:16:45.3 $GPGGA,061645.60,3015.6928379,N,12007.0289212,E,4,21,0.5,36.2070,M,7.094,M,0.6,0004*76
14:16:45.3 $GPGGA,061645.60,3015.6928379,N,12007.0289212,E,4,21,0.5,36.2070,M,7.094,M,0.7,0004*77
14:16:46.4 $GPGGA,061645.80,3015.6928396,N,12007.0290130,E,4,21,0.5,36.2158,M,7.094,M,0.8,0004*77
14:16:46.4 $GPGGA,061645.80,3015.6928396,N,12007.0290130,E,4,21,0.5,36.2158,M,7.094,M,0.9,0004*76
14:16:46.4 $GPGGA,061646.00,3015.6928657,N,12007.0290964,E,4,21,0.5,36.1980,M,7.094,M,1.0,0004*7A
14:16:46.4 $GPGGA,061646.00,3015.6928657,N,12007.0290964,E,4,21,0.5,36.1980,M,7.094,M,0.1,0004*7A
14:16:46.4 $GPGGA,061646.20,3015.6928969,N,12007.0291575,E,4,21,0.5,36.1898,M,7.094,M,0.2,0004*7C
14:16:46.4 $GPGGA,061646.20,3015.6928969,N,12007.0291575,E,4,21,0.5,36.1898,M,7.094,M,0.3,0004*7D
14:16:46.4 $GPGGA,061646.40,3015.6929256,N,12007.0291835,E,4,21,0.5,36.2096,M,7.094,M,0.4,0004*76
14:16:46.4 $GPGGA,061646.40,3015.6929256,N,12007.0291835,E,4,21,0.5,36.2096,M,7.094,M,0.5,0004*77
14:16:46.4 $GPGGA,061646.60,3015.6929461,N,12007.0291944,E,4,21,0.5,36.1829,M,7.094,M,0.6,0004*7C
14:16:46.4 $GPGGA,061646.60,3015.6929461,N,12007.0291944,E,4,21,0.5,36.1829,M,7.094,M,0.7,0004*7D
14:16:47.5 $GPGGA,061646.80,3015.6929548,N,12007.0291961,E,4,21,0.5,36.1845,M,7.094,M,0.8,0004*7B
14:16:47.5 $GPGGA,061646.80,3015.6929548,N,12007.0291961,E,4,21,0.5,36.1845,M,7.094,M,0.9,0004*7A
14:16:47.5 $GPGGA,061647.00,3015.6929497,N,12007.0291893,E,4,21,0.5,36.1771,M,7.094,M,1.0,0004*7C
14:16:47.5 $GPGGA,061647.00,3015.6929497,N,12007.0291893,E,4,21,0.5,36.1771,M,7.094,M,1.1,0004*7D
14:16:47.5 $GPGGA,061647.20,3015.6929408,N,12007.0291725,E,4,21,0.5,36.1768,M,7.094,M,0.2,0004*71
14:16:47.5 $GPGGA,061647.20,3015.6929408,N,12007.0291725,E,4,21,0.5,36.1768,M,7.094,M,0.3,0004*70
14:16:47.5 $GPGGA,061647.40,3015.6929387,N,12007.0291722,E,4,21,0.5,36.1758,M,7.094,M,0.4,0004*75
14:16:47.5 $GPGGA,061647.40,3015.6929387,N,12007.0291722,E,4,21,0.5,36.1758,M,7.094,M,0.5,0004*74
14:16:48.5 $GPGGA,061647.60,3015.6929449,N,12007.0291641,E,4,21,0.5,36.1631,M,7.094,M,0.6,0004*7A
14:16:48.5 $GPGGA,061647.60,3015.6929449,N,12007.0291641,E,4,21,0.5,36.1631,M,7.094,M,0.7,0004*7B
14:16:48.5 $GPGGA,061647.80,3015.6929499,N,12007.0291664,E,4,21,0.5,36.1817,M,7.094,M,0.8,0004*7A
14:16:48.5 $GPGGA,061647.80,3015.6929499,N,12007.0291664,E,4,21,0.5,36.1817,M,7.094,M,0.9,0004*7B
14:16:48.5 $GPGGA,061648.00,3015.6929578,N,12007.0291744,E,4,21,0.5,36.1724,M,7.094,M,1.0,0004*76
14:16:48.5 $GPGGA,061648.00,3015.6929578,N,12007.0291744,E,4,21,0.5,36.1724,M,7.094,M,0.1,0004*76
14:16:48.5 $GPGGA,061648.20,3015.6929776,N,12007.0291826,E,4,21,0.5,36.1610,M,7.094,M,0.2,0004*76
14:16:48.5 $GPGGA,061648.20,3015.6929776,N,12007.0291826,E,4,21,0.5,36.1610,M,7.094,M,0.3,0004*77
14:16:48.5 $GPGGA,061648.40,3015.6930151,N,12007.0291980,E,4,20,0.5,36.1202,M,7.094,M,0.4,0004*76
14:16:48.5 $GPGGA,061648.40,3015.6930151,N,12007.0291980,E,4,20,0.5,36.1202,M,7.094,M,0.5,0004*77
14:16:49.6 $GPGGA,061648.60,3015.6930656,N,12007.0292252,E,4,20,0.5,36.0754,M,7.094,M,0.6,0004*76
14:16:49.6 $GPGGA,061648.60,3015.6930656,N,12007.0292252,E,4,20,0.5,36.0754,M,7.094,M,0.7,0004*77
14:16:49.6 $GPGGA,061648.80,3015.6931299,N,12007.0292807,E,4,20,0.5,36.0500,M,7.094,M,0.8,0004*79
14:16:49.6 $GPGGA,061648.80,3015.6931299,N,12007.0292807,E,4,20,0.5,36.0500,M,7.094,M,0.9,0004*78
14:16:49.6 $GPGGA,061649.00,3015.6932032,N,12007.0293267,E,4,20,0.5,36.0528,M,7.094,M,1.0,0004*7E
14:16:49.6 $GPGGA,061649.00,3015.6932032,N,12007.0293267,E,4,20,0.5,36.0528,M,7.094,M,0.1,0004*7E
14:16:49.6 $GPGGA,061649.20,3015.6932819,N,12007.0293628,E,4,20,0.5,36.0447,M,7.094,M,0.2,0004*79
14:16:49.6 $GPGGA,061649.20,3015.6932819,N,12007.0293628,E,4,20,0.5,36.0447,M,7.094,M,0.3,0004*78
14:16:50.8 $GPGGA,061649.40,3015.6933692,N,12007.0293975,E,4,20,0.5,36.0391,M,7.094,M,0.4,0004*7E
14:16:50.8 $GPGGA,061649.40,3015.6933692,N,12007.0293975,E,4,20,0.5,36.0391,M,7.094,M,0.5,0004*7F
14:16:50.8 $GPGGA,061649.60,3015.6934491,N,12007.0294319,E,4,21,0.5,36.0652,M,7.094,M,0.6,0004*74
14:16:50.8 $GPGGA,061649.60,3015.6934491,N,12007.0294319,E,4,21,0.5,36.0652,M,7.094,M,0.7,0004*75
14:16:50.8 $GPGGA,061649.80,3015.6935361,N,12007.0294669,E,4,21,0.5,36.0303,M,7.094,M,0.8,0004*7E
14:16:50.8 $GPGGA,061649.80,3015.6935361,N,12007.0294669,E,4,21,0.5,36.0303,M,7.094,M,0.9,0004*7F
14:16:50.8 $GPGGA,061650.00,3015.6936270,N,12007.0295066,E,4,21,0.5,36.0380,M,7.094,M,1.0,0004*76
14:16:50.8 $GPGGA,061650.00,3015.6936270,N,12007.0295066,E,4,21,0.5,36.0380,M,7.094,M,1.1,0004*77
14:16:50.8 $GPGGA,061650.20,3015.6937122,N,12007.0295277,E,4,21,0.5,36.0852,M,7.094,M,0.2,0004*74
14:16:50.8 $GPGGA,061650.20,3015.6937122,N,12007.0295277,E,4,21,0.5,36.0852,M,7.094,M,0.3,0004*75
14:16:51.9 $GPGGA,061650.40,3015.6938041,N,12007.0295350,E,4,21,0.5,36.0631,M,7.094,M,0.4,0004*70
14:16:51.9 $GPGGA,061650.40,3015.6938041,N,12007.0295350,E,4,21,0.5,36.0631,M,7.094,M,0.5,0004*71
14:16:51.9 $GPGGA,061650.60,3015.6938915,N,12007.0295495,E,4,21,0.5,36.0447,M,7.094,M,0.6,0004*75
14:16:51.9 $GPGGA,061650.60,3015.6938915,N,12007.0295495,E,4,21,0.5,36.0447,M,7.094,M,0.7,0004*74
14:16:51.9 $GPGGA,061650.80,3015.6939855,N,12007.0295605,E,4,21,0.5,36.0617,M,7.094,M,0.8,0004*7D
14:16:51.9 $GPGGA,061650.80,3015.6939855,N,12007.0295605,E,4,21,0.5,36.0617,M,7.094,M,0.9,0004*7C
14:16:51.9 $GPGGA,061651.00,3015.6940832,N,12007.0295545,E,4,21,0.5,36.0330,M,7.094,M,1.0,0004*75
14:16:51.9 $GPGGA,061651.00,3015.6940832,N,12007.0295545,E,4,21,0.5,36.0330,M,7.094,M,1.1,0004*74
14:16:52.9 $GPGGA,061651.20,3015.6941954,N,12007.0295463,E,4,21,0.5,36.0400,M,7.094,M,0.2,0004*75
14:16:52.9 $GPGGA,061651.20,3015.6941954,N,12007.0295463,E,4,21,0.5,36.0400,M,7.094,M,0.3,0004*74
14:16:52.9 $GPGGA,061651.40,3015.6943017,N,12007.0295170,E,4,21,0.5,36.0718,M,7.094,M,0.4,0004*74
14:16:52.9 $GPGGA,061651.40,3015.6943017,N,12007.0295170,E,4,21,0.5,36.0718,M,7.094,M,0.5,0004*75
14:16:52.9 $GPGGA,061651.60,3015.6944062,N,12007.0294747,E,4,21,0.5,36.0370,M,7.094,M,0.6,0004*78
14:16:52.9 $GPGGA,061651.60,3015.6944062,N,12007.0294747,E,4,21,0.5,36.0370,M,7.094,M,0.7,0004*79
14:16:52.9 $GPGGA,061651.80,3015.6945047,N,12007.0294325,E,4,21,0.5,36.0420,M,7.094,M,0.8,0004*7C
14:16:52.9 $GPGGA,061651.80,3015.6945047,N,12007.0294325,E,4,21,0.5,36.0420,M,7.094,M,0.9,0004*7D
14:16:52.9 $GPGGA,061652.00,3015.6946058,N,12007.0293883,E,4,21,0.5,36.0578,M,7.094,M,1.0,0004*7F
14:16:52.9 $GPGGA,061652.00,3015.6946058,N,12007.0293883,E,4,21,0.5,36.0578,M,7.094,M,1.1,0004*7E
14:16:53.0 $GPGGA,061652.20,3015.6947074,N,12007.0293590,E,4,21,0.5,36.0245,M,7.094,M,0.2,0004*77
14:16:53.0 $GPGGA,061652.20,3015.6947074,N,12007.0293590,E,4,21,0.5,36.0245,M,7.094,M,0.3,0004*76
14:16:53.0 $GPGGA,061652.40,3015.6948166,N,12007.0293226,E,4,21,0.5,36.0330,M,7.094,M,0.4,0004*73
14:16:53.0 $GPGGA,061652.40,3015.6948166,N,12007.0293226,E,4,21,0.5,36.0330,M,7.094,M,0.5,0004*72
14:16:53.0 $GPGGA,061652.60,3015.6949203,N,12007.0292815,E,4,21,0.5,36.0724,M,7.094,M,0.6,0004*78
14:16:53.0 $GPGGA,061652.60,3015.6949203,N,12007.0292815,E,4,21,0.5,36.0724,M,7.094,M,0.7,0004*79
14:16:53.0 $GPGGA,061652.80,3015.6950205,N,12007.0292359,E,4,21,0.5,36.0591,M,7.094,M,0.8,0004*79
14:16:53.0 $GPGGA,061652.80,3015.6950205,N,12007.0292359,E,4,21,0.5,36.0591,M,7.094,M,0.9,0004*78
14:16:53.0 $GPGGA,061653.00,3015.6951257,N,12007.0292040,E,4,21,0.5,36.0412,M,7.094,M,1.0,0004*7E
14:16:53.0 $GPGGA,061653.00,3015.6951257,N,12007.0292040,E,4,21,0.5,36.0412,M,7.094,M,0.1,0004*7E
14:16:53.0 $GPGGA,061653.20,3015.6952359,N,12007.0291904,E,4,21,0.5,36.0926,M,7.094,M,0.2,0004*73
14:16:53.0 $GPGGA,061653.20,3015.6952359,N,12007.0291904,E,4,21,0.5,36.0926,M,7.094,M,0.3,0004*72
14:16:53.0 $GPGGA,061653.40,3015.6953402,N,12007.0291906,E,4,21,0.5,36.0543,M,7.094,M,0.4,0004*76
14:16:53.0 $GPGGA,061653.40,3015.6953402,N,12007.0291906,E,4,21,0.5,36.0543,M,7.094,M,0.5,0004*77
14:16:53.0 $GPGGA,061653.60,3015.6954523,N,12007.0291868,E,4,21,0.5,36.0581,M,7.094,M,0.6,0004*74
14:16:53.0 $GPGGA,061653.60,3015.6954523,N,12007.0291868,E,4,21,0.5,36.0581,M,7.094,M,0.7,0004*75
14:16:53.0 $GPGGA,061653.80,3015.6955560,N,12007.0291762,E,4,21,0.5,36.0856,M,7.094,M,0.8,0004*70
14:16:53.0 $GPGGA,061653.80,3015.6955560,N,12007.0291762,E,4,21,0.5,36.0856,M,7.094,M,0.9,0004*71
14:16:54.3 $GPGGA,061654.00,3015.6956611,N,12007.0291660,E,4,21,0.5,36.0739,M,7.094,M,1.0,0004*75
14:16:54.3 $GPGGA,061654.00,3015.6956611,N,12007.0291660,E,4,21,0.5,36.0739,M,7.094,M,0.1,0004*75
14:16:54.3 $GPGGA,061654.20,3015.6957685,N,12007.0291642,E,4,20,0.5,36.0632,M,7.094,M,0.2,0004*73
14:16:54.3 $GPGGA,061654.20,3015.6957685,N,12007.0291642,E,4,20,0.5,36.0632,M,7.094,M,0.3,0004*72
14:16:54.3 $GPGGA,061654.40,3015.6958744,N,12007.0291694,E,4,20,0.5,36.0863,M,7.094,M,0.4,0004*71
14:16:54.3 $GPGGA,061654.40,3015.6958744,N,12007.0291694,E,4,20,0.5,36.0863,M,7.094,M,0.5,0004*70
14:16:54.3 $GPGGA,061654.60,3015.6959774,N,12007.0291911,E,4,20,0.5,36.0720,M,7.094,M,0.6,0004*79
14:16:54.3 $GPGGA,061654.60,3015.6959774,N,12007.0291911,E,4,20,0.5,36.0720,M,7.094,M,0.7,0004*78
14:16:55.3 $GPGGA,061654.80,3015.6960697,N,12007.0292155,E,4,20,0.5,36.0628,M,7.094,M,0.8,0004*7D
14:16:55.3 $GPGGA,061654.80,3015.6960697,N,12007.0292155,E,4,20,0.5,36.0628,M,7.094,M,0.9,0004*7C
14:16:55.3 $GPGGA,061655.00,3015.6961647,N,12007.0292308,E,4,20,0.5,36.0892,M,7.094,M,1.0,0004*74
14:16:55.3 $GPGGA,061655.00,3015.6961647,N,12007.0292308,E,4,20,0.5,36.0892,M,7.094,M,1.1,0004*75
14:16:55.3 $GPGGA,061655.20,3015.6962580,N,12007.0292405,E,4,20,0.5,36.0912,M,7.094,M,0.2,0004*7D
14:16:55.3 $GPGGA,061655.20,3015.6962580,N,12007.0292405,E,4,20,0.5,36.0912,M,7.094,M,0.3,0004*7C
14:16:55.3 $GPGGA,061655.40,3015.6963552,N,12007.0292526,E,4,20,0.5,36.1015,M,7.094,M,0.4,0004*7C
14:16:55.3 $GPGGA,061655.40,3015.6963552,N,12007.0292526,E,4,20,0.5,36.1015,M,7.094,M,0.5,0004*7D
14:16:55.3 $GPGGA,061655.60,3015.6964515,N,12007.0292747,E,4,20,0.5,36.0985,M,7.094,M,0.6,0004*7C
14:16:55.3 $GPGGA,061655.60,3015.6964515,N,12007.0292747,E,4,20,0.5,36.0985,M,7.094,M,0.7,0004*7D
14:16:56.4 $GPGGA,061655.80,3015.6965434,N,12007.0293152,E,4,20,0.5,36.0795,M,7.094,M,0.8,0004*73
14:16:56.4 $GPGGA,061655.80,3015.6965434,N,12007.0293152,E,4,20,0.5,36.0795,M,7.094,M,0.9,0004*72
14:16:56.4 $GPGGA,061656.00,3015.6966332,N,12007.0293515,E,4,20,0.5,36.0848,M,7.094,M,1.0,0004*7B
14:16:56.4 $GPGGA,061656.00,3015.6966332,N,12007.0293515,E,4,20,0.5,36.0848,M,7.094,M,1.1,0004*7A
14:16:56.4 $GPGGA,061656.20,3015.6967215,N,12007.0293741,E,4,20,0.5,36.1142,M,7.094,M,0.2,0004*7E
14:16:56.4 $GPGGA,061656.20,3015.6967215,N,12007.0293741,E,4,20,0.5,36.1142,M,7.094,M,0.3,0004*7F
14:16:56.4 $GPGGA,061656.40,3015.6968197,N,12007.0293826,E,4,20,0.5,36.1079,M,7.094,M,0.4,0004*7F
14:16:56.4 $GPGGA,061656.40,3015.6968197,N,12007.0293826,E,4,20,0.5,36.1079,M,7.094,M,0.5,0004*7E
14:16:57.5 $GPGGA,061656.60,3015.6969243,N,12007.0293853,E,4,20,0.5,36.1027,M,7.094,M,0.6,0004*7D
14:16:57.5 $GPGGA,061656.60,3015.6969243,N,12007.0293853,E,4,20,0.5,36.1027,M,7.094,M,0.7,0004*7C
14:16:57.5 $GPGGA,061656.80,3015.6970320,N,12007.0293893,E,4,20,0.5,36.1215,M,7.094,M,0.8,0004*7E
14:16:57.5 $GPGGA,061656.80,3015.6970320,N,12007.0293893,E,4,20,0.5,36.1215,M,7.094,M,0.9,0004*7F
14:16:57.5 $GPGGA,061657.00,3015.6971446,N,12007.0293857,E,4,20,0.5,36.0888,M,7.094,M,1.0,0004*7F
14:16:57.5 $GPGGA,061657.00,3015.6971446,N,12007.0293857,E,4,20,0.5,36.0888,M,7.094,M,0.1,0004*7F
14:16:57.5 $GPGGA,061657.20,3015.6972578,N,12007.0293960,E,4,20,0.5,36.0912,M,7.094,M,0.2,0004*76
14:16:57.5 $GPGGA,061657.20,3015.6972578,N,12007.0293960,E,4,20,0.5,36.0912,M,7.094,M,0.3,0004*77
14:16:57.5 $GPGGA,061657.40,3015.6973653,N,12007.0294001,E,4,20,0.5,36.1201,M,7.094,M,0.4,0004*7C
14:16:57.5 $GPGGA,061657.40,3015.6973653,N,12007.0294001,E,4,20,0.5,36.1201,M,7.094,M,0.5,0004*7D
14:16:58.6 $GPGGA,061657.60,3015.6974802,N,12007.0293817,E,4,20,0.5,36.1045,M,7.094,M,0.6,0004*7B
14:16:58.6 $GPGGA,061657.60,3015.6974802,N,12007.0293817,E,4,20,0.5,36.1045,M,7.094,M,0.7,0004*7A
14:16:58.6 $GPGGA,061657.80,3015.6975897,N,12007.0293811,E,4,20,0.5,36.0911,M,7.094,M,0.8,0004*79
14:16:58.6 $GPGGA,061657.80,3015.6975897,N,12007.0293811,E,4,20,0.5,36.0911,M,7.094,M,0.9,0004*78
14:16:58.6 $GPGGA,061658.00,3015.6977089,N,12007.0293916,E,4,21,0.5,36.1146,M,7.094,M,1.0,0004*7E
14:16:58.6 $GPGGA,061658.00,3015.6977089,N,12007.0293916,E,4,21,0.5,36.1146,M,7.094,M,1.1,0004*7F
14:16:58.6 $GPGGA,061658.20,3015.6978133,N,12007.0294145,E,4,21,0.5,36.1011,M,7.094,M,0.2,0004*7A
14:16:58.6 $GPGGA,061658.20,3015.6978133,N,12007.0294145,E,4,21,0.5,36.1011,M,7.094,M,0.3,0004*7B
14:16:59.7 $GPGGA,061658.40,3015.6979151,N,12007.0294521,E,4,20,0.5,36.0814,M,7.094,M,0.4,0004*74
14:16:59.7 $GPGGA,061658.40,3015.6979151,N,12007.0294521,E,4,20,0.5,36.0814,M,7.094,M,0.5,0004*75
14:16:59.7 $GPGGA,061658.60,3015.6980204,N,12007.0294889,E,4,20,0.5,36.1024,M,7.094,M,0.6,0004*74
14:16:59.7 $GPGGA,061658.60,3015.6980204,N,12007.0294889,E,4,20,0.5,36.1024,M,7.094,M,0.7,0004*75
14:16:59.7 $GPGGA,061658.80,3015.6981290,N,12007.0295196,E,4,20,0.5,36.0856,M,7.094,M,0.8,0004*72
14:16:59.7 $GPGGA,061658.80,3015.6981290,N,12007.0295196,E,4,20,0.5,36.0856,M,7.094,M,0.9,0004*73
14:16:59.7 $GPGGA,061659.00,3015.6982295,N,12007.0295625,E,4,20,0.5,36.0624,M,7.094,M,1.0,0004*70
14:16:59.7 $GPGGA,061659.00,3015.6982295,N,12007.0295625,E,4,20,0.5,36.0624,M,7.094,M,1.1,0004*71
14:16:59.7 $GPGGA,061659.20,3015.6983400,N,12007.0296068,E,4,20,0.5,36.0895,M,7.094,M,0.2,0004*72
14:16:59.7 $GPGGA,061659.20,3015.6983400,N,12007.0296068,E,4,20,0.5,36.0895,M,7.094,M,0.3,0004*73
14:17:0.8 $GPGGA,061659.40,3015.6984454,N,12007.0296603,E,4,20,0.5,36.0765,M,7.094,M,0.4,0004*7F
14:17:0.8 $GPGGA,061659.40,3015.6984454,N,12007.0296603,E,4,20,0.5,36.0765,M,7.094,M,0.5,0004*7E
14:17:0.8 $GPGGA,061659.60,3015.6985512,N,12007.0297168,E,4,20,0.5,36.0536,M,7.094,M,0.6,0004*72
14:17:0.8 $GPGGA,061659.60,3015.6985512,N,12007.0297168,E,4,20,0.5,36.0536,M,7.094,M,0.7,0004*73
14:17:0.8 $GPGGA,061659.80,3015.6986533,N,12007.0297707,E,4,20,0.5,36.0575,M,7.094,M,0.8,0004*7A
14:17:0.8 $GPGGA,061659.80,3015.6986533,N,12007.0297707,E,4,20,0.5,36.0575,M,7.094,M,0.9,0004*7B
14:17:0.8 $GPGGA,061700.00,3015.6987527,N,12007.0298283,E,4,20,0.5,36.0599,M,7.094,M,1.0,0004*76
14:17:0.8 $GPGGA,061700.00,3015.6987527,N,12007.0298283,E,4,20,0.5,36.0599,M,7.094,M,1.1,0004*77
14:17:1.9 $GPGGA,061700.20,3015.6988372,N,12007.0298822,E,4,20,0.5,36.0791,M,7.094,M,0.2,0004*75
14:17:1.9 $GPGGA,061700.20,3015.6988372,N,12007.0298822,E,4,20,0.5,36.0791,M,7.094,M,0.3,0004*74
14:17:1.9 $GPGGA,061700.40,3015.6989114,N,12007.0299525,E,4,20,0.5,36.0944,M,7.094,M,0.4,0004*7B
14:17:1.9 $GPGGA,061700.40,3015.6989114,N,12007.0299525,E,4,20,0.5,36.0944,M,7.094,M,0.5,0004*7A
14:17:1.9 $GPGGA,061700.60,3015.6989805,N,12007.0300282,E,4,20,0.5,36.0866,M,7.094,M,0.6,0004*78
14:17:1.9 $GPGGA,061700.60,3015.6989805,N,12007.0300282,E,4,20,0.5,36.0866,M,7.094,M,0.7,0004*79
14:17:1.9 $GPGGA,061700.80,3015.6990469,N,12007.0301064,E,4,21,0.5,36.0646,M,7.094,M,0.8,0004*70
14:17:1.9 $GPGGA,061700.80,3015.6990469,N,12007.0301064,E,4,21,0.5,36.0646,M,7.094,M,0.9,0004*71
14:17:1.9 $GPGGA,061701.00,3015.6991077,N,12007.0301817,E,4,21,0.5,36.0460,M,7.094,M,1.0,0004*70
14:17:1.9 $GPGGA,061701.00,3015.6991077,N,12007.0301817,E,4,21,0.5,36.0460,M,7.094,M,0.1,0004*70
14:17:2.9 $GPGGA,061701.20,3015.6991713,N,12007.0302527,E,4,20,0.5,36.0256,M,7.094,M,0.2,0004*7B
14:17:2.9 $GPGGA,061701.20,3015.6991713,N,12007.0302527,E,4,20,0.5,36.0256,M,7.094,M,0.3,0004*7A
14:17:2.9 $GPGGA,061701.40,3015.6992255,N,12007.0303311,E,4,20,0.5,35.9935,M,7.094,M,0.4,0004*79
14:17:2.9 $GPGGA,061701.40,3015.6992255,N,12007.0303311,E,4,20,0.5,35.9935,M,7.094,M,0.5,0004*78
14:17:2.9 $GPGGA,061701.60,3015.6992721,N,12007.0304197,E,4,20,0.6,35.9939,M,7.094,M,0.6,0004*7B
14:17:2.9 $GPGGA,061701.60,3015.6992721,N,12007.0304197,E,4,20,0.6,35.9939,M,7.094,M,0.7,0004*7A
14:17:2.9 $GPGGA,061701.80,3015.6993018,N,12007.0304973,E,4,20,0.5,35.9895,M,7.094,M,0.8,0004*71
14:17:2.9 $GPGGA,061701.80,3015.6993018,N,12007.0304973,E,4,20,0.5,35.9895,M,7.094,M,0.9,0004*70
14:17:2.0 $GPGGA,061702.00,3015.6993291,N,12007.0305783,E,4,20,0.5,35.9812,M,7.094,M,1.0,0004*7F
14:17:2.0 $GPGGA,061702.00,3015.6993291,N,12007.0305783,E,4,20,0.5,35.9812,M,7.094,M,1.1,0004*7E
14:17:2.0 $GPGGA,061702.20,3015.6993558,N,12007.0306590,E,4,20,0.6,35.9669,M,7.094,M,0.2,0004*7E
14:17:2.0 $GPGGA,061702.20,3015.6993558,N,12007.0306590,E,4,20,0.6,35.9669,M,7.094,M,0.3,0004*7F
14:17:2.0 $GPGGA,061702.40,3015.6993779,N,12007.0307275,E,4,19,0.6,35.8843,M,7.094,M,0.4,0004*7F
14:17:2.0 $GPGGA,061702.40,3015.6993779,N,12007.0307275,E,4,19,0.6,35.8843,M,7.094,M,0.5,0004*7E
14:17:2.0 $GPGGA,061702.60,3015.6993773,N,12007.0307864,E,4,19,0.6,35.7477,M,7.094,M,0.6,0004*7B
14:17:2.0 $GPGGA,061702.60,3015.6993773,N,12007.0307864,E,4,19,0.6,35.7477,M,7.094,M,0.7,0004*7A
14:17:2.0 $GPGGA,061702.80,3015.6993673,N,12007.0308176,E,4,19,0.6,35.6011,M,7.094,M,0.8,0004*7A
14:17:2.0 $GPGGA,061702.80,3015.6993673,N,12007.0308176,E,4,19,0.6,35.6011,M,7.094,M,0.9,0004*7B
14:17:3.3 $GPGGA,061703.00,3015.6993562,N,12007.0308507,E,4,20,0.5,35.4261,M,7.094,M,1.0,0004*75
14:17:3.3 $GPGGA,061703.00,3015.6993562,N,12007.0308507,E,4,20,0.5,35.4261,M,7.094,M,0.1,0004*75
14:17:3.3 $GPGGA,061703.20,3015.6993426,N,12007.0308970,E,4,20,0.6,35.2873,M,7.094,M,0.2,0004*75
14:17:3.3 $GPGGA,061703.20,3015.6993426,N,12007.0308970,E,4,20,0.6,35.2873,M,7.094,M,0.3,0004*74
14:17:3.3 $GPGGA,061703.40,3015.6993433,N,12007.0309145,E,4,20,0.6,35.2050,M,7.094,M,0.4,0004*77
14:17:3.3 $GPGGA,061703.40,3015.6993433,N,12007.0309145,E,4,20,0.6,35.2050,M,7.094,M,0.5,0004*76
14:17:3.3 $GPGGA,061703.60,3015.6993681,N,12007.0309527,E,4,19,0.6,35.1141,M,7.094,M,0.6,0004*74
14:17:3.3 $GPGGA,061703.60,3015.6993681,N,12007.0309527,E,4,19,0.6,35.1141,M,7.094,M,0.7,0004*75
